City,Latitude,Longitude,Max Temp (F),Humidity (%),Cloudiness (%),Wind Speed (mph),Country,Date
Port elizabeth,-33.918,25.5701,66.2,94,90,6.91,ZA,1612731246
Matara,5.9485,80.5353,74.19,90,0,4.27,LK,1612731280
Rikitea,-23.1203,-134.9692,77.4,73,97,13.04,PF,1612731506
Hobart,-42.8794,147.3294,55.4,58,40,13.8,AU,1612730869
Atar,20.5169,-13.0499,61.97,32,0,9.51,MR,1612731506
Xinzhou,38.4092,112.7333,26.65,82,0,1.01,CN,1612731506
Mahendranagar,28.9167,80.3333,55.04,53,0,4.21,NP,1612731506
Riyadh,24.6877,46.7219,59.0,58,0,11.5,SA,1612730837
Kefamenanu,-9.4467,124.4781,70.16,88,100,2.01,ID,1612731507
Kavieng,-2.5744,150.7967,83.37,72,75,7.78,PG,1612731507
Talladega,33.4359,-86.1058,48.2,61,75,5.14,US,1612731507
Qaanaaq,77.484,-69.3632,12.56,85,59,6.87,GL,1612730923
Fort-shevchenko,44.5086,50.263,31.5,87,96,15.61,KZ,1612731390
Hermanus,-34.4187,19.2345,64.99,79,5,4.21,ZA,1612731507
Kodiak,57.79,-152.4072,26.6,74,1,4.61,US,1612731507
Ushuaia,-54.8,-68.3,60.8,55,40,8.05,AR,1612731507
Paramonga,-10.6667,-77.8333,75.92,65,95,9.44,PE,1612731507
Hervey bay,-25.2986,152.8535,80.01,88,18,3.0,AU,1612731466
Walvis bay,-22.9575,14.5053,64.99,82,0,8.05,NA,1612731485
Arraial do cabo,-22.9661,-42.0278,73.4,88,75,4.61,BR,1612731010
Vaini,-21.2,-175.2,78.8,78,75,12.66,TO,1612730953
Hilo,19.7297,-155.09,78.8,53,1,4.61,US,1612730989
Aden,12.7794,45.0367,75.6,66,0,5.01,YE,1612731508
Ketchikan,55.3422,-131.6461,30.2,64,1,13.8,US,1612731286
Castrovillari,39.8203,16.2123,55.0,83,14,1.01,IT,1612731508
Kapaa,22.0752,-159.319,73.0,56,1,3.13,US,1612731040
Kulhudhuffushi,6.6221,73.07,81.12,74,99,8.41,MV,1612731246
Jamestown,42.097,-79.2353,16.0,79,90,16.11,US,1612731508
Auki,-8.7676,160.7034,80.98,81,7,5.68,SB,1612731467
Yar-sale,66.8333,70.8333,-11.24,89,100,24.09,RU,1612731508
Pangnirtung,66.1451,-65.7125,33.8,44,20,16.11,CA,1612730834
Bengkulu,-3.8004,102.2655,75.31,83,99,6.78,ID,1612731350
Avarua,-21.2078,-159.775,84.2,74,20,13.8,CK,1612730925
Voznesenka,46.8717,35.4646,26.42,82,100,9.69,UA,1612731508
Oranjemund,-28.55,16.4333,63.59,79,0,21.88,NA,1612731509
Bredasdorp,-34.5322,20.0403,64.4,68,5,5.75,ZA,1612730973
Saint-joseph,-21.3667,55.6167,80.6,74,0,4.61,RE,1612731176
Bethel,41.3712,-73.414,28.99,93,90,4.61,US,1612731009
Whitianga,-36.8333,175.7,67.28,65,40,7.76,NZ,1612731509
Cheyenne,41.14,-104.8203,42.01,28,40,28.77,US,1612731509
Busselton,-33.65,115.3333,62.01,99,87,1.01,AU,1612731509
Kahului,20.8947,-156.47,75.2,57,1,8.05,US,1612731155
Narsaq,60.9167,-46.05,37.4,28,53,49.48,GL,1612731509
Plettenberg bay,-34.0527,23.3716,64.62,78,79,6.02,ZA,1612731509
Ponta do sol,32.6667,-17.1,59.0,68,40,5.01,PT,1612731047
Leshukonskoye,64.8989,45.7622,-20.61,87,100,8.63,RU,1612731488
Puerto ayora,-0.7393,-90.3518,86.0,66,40,20.71,EC,1612730971
Morgan city,29.6994,-91.2068,59.0,67,1,12.66,US,1612731511
Carnarvon,-24.8667,113.6333,75.2,100,40,6.91,AU,1612731426
Funtua,11.5233,7.3081,68.41,22,0,8.5,NG,1612731511
Golkoy,40.6875,37.6178,50.0,100,75,4.61,TR,1612731511
Faanui,-16.4833,-151.75,81.07,76,2,12.62,PF,1612730997
Fort nelson,58.8053,-122.7002,-14.8,76,75,10.36,CA,1612731427
Olga,43.7444,135.2892,0.05,80,0,13.51,RU,1612731511
Ankazoabo,-22.2833,44.5167,73.71,90,57,2.21,MG,1612731511
Yellowknife,62.456,-114.3525,-32.01,61,1,4.61,CA,1612730965
Tuktoyaktuk,69.4541,-133.0374,-25.6,68,75,16.11,CA,1612730930
Egvekinot,66.3167,-179.1667,-11.79,83,0,12.59,RU,1612731511
Bluff,-46.6,168.3333,58.26,73,97,5.21,NZ,1612731350
Tunggol,5.8446,121.1544,79.3,84,100,4.88,PH,1612731512
Dicabisagan,17.0818,122.4157,73.56,85,12,3.15,PH,1612731221
Fairbanks,64.8378,-147.7164,-9.0,75,20,4.61,US,1612731282
Staraya poltavka,50.4772,46.4814,2.97,86,70,14.14,RU,1612731512
Doha,25.2867,51.5333,68.0,77,0,10.36,QA,1612731512
Butaritari,3.0707,172.7902,81.28,80,96,19.91,KI,1612730956
Yeppoon,-23.1333,150.7333,78.8,83,90,8.05,AU,1612731375
Flin flon,54.7682,-101.865,-27.4,56,1,14.97,CA,1612731161
Katsuura,35.1333,140.3,42.01,52,40,3.44,JP,1612731500
Mataura,-46.1927,168.8643,63.41,57,98,2.89,NZ,1612730937
Victoria,22.2855,114.1577,66.99,78,0,12.59,HK,1612730958
Dikson,73.5069,80.5464,-32.1,85,90,15.93,RU,1612730817
Ambulu,-8.345,113.6058,75.67,91,100,3.78,ID,1612731513
Nyborg,55.3127,10.7896,30.0,78,100,7.0,DK,1612731513
Souillac,-20.5167,57.5167,80.6,78,75,9.22,MU,1612731379
Albany,42.6001,-73.9662,30.0,72,100,1.25,US,1612731322
Aykhal,66.0,111.5,-25.17,83,95,5.17,RU,1612731513
Chisinau,47.0056,28.8575,23.0,93,90,12.66,MD,1612731307
Kulu,39.0951,33.0799,50.79,52,88,8.14,TR,1612731513
Nanortalik,60.1432,-45.2371,28.71,89,82,14.61,GL,1612731140
Saint-philippe,-21.3585,55.7679,80.6,74,0,4.61,RE,1612731081
Kaitangata,-46.2817,169.8464,63.0,81,100,1.99,NZ,1612730928
Mackay,-21.15,149.2,80.6,89,75,3.44,AU,1612731168
Amapa,1.0,-52.0,76.71,95,100,3.29,BR,1612731067
Te anau,-45.4167,167.7167,60.37,69,100,4.41,NZ,1612731435
Cape town,-33.9258,18.4232,68.0,63,0,18.41,ZA,1612730691
Port lincoln,-34.7333,135.8667,60.12,78,81,15.05,AU,1612730975
San patricio,28.017,-97.5169,72.0,40,20,14.97,US,1612731278
Punta arenas,-53.15,-70.9167,71.6,23,0,13.8,CL,1612731514
Fortuna,40.5982,-124.1573,55.0,81,20,12.66,US,1612731003
Lao cai,22.4833,103.95,66.22,84,100,0.69,VN,1612731514
Luderitz,-26.6481,15.1594,70.05,57,0,29.12,NA,1612731298
Saldanha,-33.0117,17.9442,64.4,68,0,14.97,ZA,1612731012
Paraiso,9.8383,-83.8656,82.4,44,20,17.27,CR,1612731514
Kavaratti,10.5669,72.642,80.56,71,3,7.31,IN,1612730939
Madimba,-10.4,40.3333,80.6,89,40,9.22,TZ,1612731514
Saskylakh,71.9167,114.0833,-37.32,78,28,13.71,RU,1612731222
Iqaluit,63.7506,-68.5145,26.6,74,75,6.91,CA,1612731514
Karratha,-20.7377,116.8463,77.63,72,3,7.78,AU,1612731085
Mpraeso,6.5932,-0.7346,78.44,74,78,5.41,GH,1612731514
Ugoofaaru,5.6667,73.0,81.37,76,21,10.8,MV,1612731515
Salamanca,40.8333,-6.0,44.01,69,100,1.99,ES,1612731515
Aklavik,68.2191,-135.0107,-16.6,69,90,13.8,CA,1612731076
Roald,62.5833,6.1333,23.0,50,0,11.5,NO,1612731515
Nynashamn,58.9034,17.9479,19.0,74,49,1.01,SE,1612731515
San quintin,30.4833,-115.95,65.53,52,1,9.95,MX,1612731370
Alofi,-19.0595,-169.9187,82.4,83,40,10.36,NU,1612731515
Sembakung,3.8167,117.25,73.35,98,100,1.3,ID,1612731515
Jardim,-21.4803,-56.1381,82.78,50,0,5.46,BR,1612731515
Kutum,14.2,24.6667,54.45,36,0,7.49,SD,1612731142
Ahuimanu,21.4447,-157.8378,75.2,46,20,3.44,US,1612731515
Creel,27.75,-107.6333,60.51,29,0,16.08,MX,1612731515
Bintulu,3.1667,113.0333,75.2,100,40,3.44,MY,1612731516
Porto velho,-8.7619,-63.9039,86.0,66,40,3.44,BR,1612731387
Omboue,-1.5746,9.2618,79.34,84,100,3.47,GA,1612730865
San jose,37.3394,-121.895,68.0,48,20,3.44,US,1612730803
Nkhotakota,-12.9274,34.2961,75.16,82,100,3.36,MW,1612731516
Bambous virieux,-20.3428,57.7575,81.0,78,75,9.22,MU,1612730945
Ostrovnoy,68.0531,39.5131,3.94,92,79,13.73,RU,1612731386
Pacific grove,36.6177,-121.9166,64.0,71,1,6.91,US,1612731115
New norfolk,-42.7826,147.0587,55.0,67,33,1.99,AU,1612731018
Half moon bay,37.4636,-122.4286,64.99,72,1,12.66,US,1612731447
Bandarbeyla,9.4942,50.8122,75.45,80,34,18.3,SO,1612731061
Thap than,15.4606,99.8917,77.0,77,0,6.08,TH,1612731516
Asau,46.4333,26.4,30.0,73,100,2.77,RO,1612731516
Klenovyy,48.1193,39.4588,16.77,74,97,4.41,UA,1612731517
Sao borja,-28.6606,-56.0044,85.8,45,0,5.73,BR,1612731517
Benicarlo,40.4165,0.4271,46.99,56,48,1.99,ES,1612731517
Diffa,13.3154,12.6113,67.75,22,0,6.13,NE,1612731517
Mar del plata,-38.0023,-57.5575,61.0,94,90,13.8,AR,1612730889
Antalaha,-14.9003,50.2788,76.51,87,100,3.11,MG,1612731517
Genhe,50.7833,121.5167,-21.1,85,0,2.46,CN,1612731517
Port alfred,-33.5906,26.891,66.99,95,98,7.85,ZA,1612730919
Severo-kurilsk,50.6789,156.125,18.0,88,96,10.49,RU,1612731129
Longyearbyen,78.2186,15.6401,14.0,67,75,16.11,SJ,1612731079
Daru,-9.0763,143.2092,77.95,87,66,9.55,PG,1612731355
Nikolskoye,59.7035,30.7861,17.6,86,75,13.42,RU,1612730920
Elko,41.0002,-115.5012,50.0,18,1,19.57,US,1612731297
Rudnichnyy,59.617,52.4703,-18.56,87,100,9.31,RU,1612731518
College,64.8569,-147.8028,-9.0,75,20,4.61,US,1612731150
Brenes,37.5494,-5.8714,55.0,76,75,11.5,ES,1612731518
Ecija,37.5422,-5.0826,53.01,71,90,6.91,ES,1612731518
Thompson,55.7435,-97.8558,-27.4,68,75,14.97,CA,1612730951
Nemuro,43.3236,145.575,13.42,86,0,10.22,JP,1612730989
Wynyard,-41.0,145.7167,55.0,75,100,6.6,AU,1612731227
Anloga,5.7947,0.8973,84.2,84,20,10.36,GH,1612731518
Paamiut,61.994,-49.6678,28.45,85,73,8.19,GL,1612731518
Rawson,-43.3002,-65.1023,61.61,48,10,12.62,AR,1612731424
Avera,33.194,-82.5271,51.8,66,75,9.22,US,1612731072
Kodinsk,58.6881,99.1844,19.94,96,76,4.79,RU,1612731519
Batagay-alyta,67.8006,130.4114,-33.05,78,0,2.44,RU,1612731519
Tahta,26.7693,31.5021,59.0,55,0,9.22,EG,1612731519
La romana,18.4273,-68.9728,84.2,65,40,11.5,DO,1612731519
Tual,-5.6667,132.75,83.5,78,100,19.42,ID,1612731519
Ribeira grande,38.5167,-28.7,59.0,77,40,9.22,PT,1612730929
Chlorakas,34.8042,32.4083,53.6,82,20,6.91,CY,1612731519
Vostok,46.4856,135.8833,-15.72,90,100,3.15,RU,1612731265
Matagami,49.7502,-77.6328,8.6,66,20,10.36,CA,1612731520
Sabaudia,41.3003,13.0282,57.0,81,100,3.0,IT,1612731520
Banjar,-8.19,114.9675,80.6,83,20,3.44,ID,1612731520
Gat,31.61,34.7642,57.99,88,36,2.35,IL,1612731006
Isangel,-19.55,169.2667,78.8,83,20,6.22,VU,1612731305
Cabo san lucas,22.8909,-109.9124,75.0,60,20,5.75,MX,1612730960
Pitimbu,-7.4706,-34.8086,84.2,74,75,11.5,BR,1612731520
Zhangye,38.9342,100.4517,28.04,72,99,1.72,CN,1612731520
Pisco,-13.7,-76.2167,75.2,78,0,4.61,PE,1612731091
Manadhoo,5.7667,73.3833,81.32,71,22,8.66,MV,1612731520
Pyapon,16.2833,95.6833,70.77,66,23,8.81,MM,1612731520
Newport,51.5877,-2.9984,34.0,74,40,23.15,GB,1612731417
Khorixas,-20.3667,14.9667,68.4,50,80,8.66,NA,1612731521
East london,-33.0153,27.9116,71.76,84,100,8.14,ZA,1612731382
Cockburn town,21.4612,-71.1419,80.6,74,20,15.66,TC,1612731135
Tasiilaq,65.6145,-37.6368,24.8,54,0,16.11,GL,1612730934
Ossora,59.2353,163.0719,21.9,97,100,40.85,RU,1612731521
Hasaki,35.7333,140.8333,32.0,86,40,3.44,JP,1612731116
Puerto carreno,6.189,-67.4859,92.23,43,100,7.65,CO,1612731521
Tiksi,71.6872,128.8694,-28.14,85,31,4.79,RU,1612731352
Poum,-20.2333,164.0167,79.43,72,73,2.75,NC,1612730966
Krasnoselkup,65.7,82.4667,12.07,96,98,14.52,RU,1612731353
Hithadhoo,-0.6,73.0833,82.27,69,59,8.32,MV,1612731399
Atuona,-9.8,-139.0333,79.47,75,18,21.61,PF,1612731251
Castro,-24.7911,-50.0119,70.77,66,0,4.59,BR,1612730968
Constitucion,-35.3333,-72.4167,65.61,72,3,8.43,CL,1612731522
Vidim,56.4088,103.1106,14.92,93,97,7.85,RU,1612731522
Geraldton,-28.7667,114.6,66.2,88,90,8.05,AU,1612731401
Sakakah,29.9697,40.2064,51.8,71,0,5.75,SA,1612731384
Abha,18.2164,42.5053,57.2,41,0,3.44,SA,1612731522
Barra,-11.0894,-43.1417,77.79,79,98,7.45,BR,1612731522
Lagos,6.5833,3.75,84.2,84,40,8.05,NG,1612731522
Khatanga,71.9667,102.5,-30.3,80,0,10.11,RU,1612730982
Wanning,18.8003,110.3967,67.96,91,29,3.47,CN,1612731084
Libertador general san martin,-23.8064,-64.7876,90.23,33,14,6.96,AR,1612731522
Calbuco,-41.768,-73.1273,77.0,53,0,11.5,CL,1612731522
Margate,51.3813,1.3862,30.99,82,100,7.0,GB,1612730981
Salalah,17.0151,54.0924,73.4,68,75,3.44,OM,1612731357
Diamantina,-18.2494,-43.6003,66.49,92,96,5.84,BR,1612731522
Pevek,69.7008,170.3133,-7.65,86,0,0.96,RU,1612731523
Dingle,10.9995,122.6711,75.52,92,100,7.9,PH,1612730990
Mount isa,-20.7333,139.5,77.0,100,100,4.61,AU,1612731004
Beloha,-25.1667,45.05,75.54,91,11,7.67,MG,1612731409
Naze,28.3667,129.4833,57.6,66,0,9.71,JP,1612731523
Mazyr,52.0495,29.2456,10.8,90,100,7.14,BY,1612731523
Bantry,51.6833,-9.45,37.4,81,90,16.11,IE,1612731523
Nassjo,57.6531,14.6968,17.6,93,90,5.75,SE,1612731523
Saint george,37.1041,-113.5841,61.0,25,1,4.61,US,1612731523
Cerna hora,49.4136,16.5814,28.0,74,100,13.04,CZ,1612731523
Touros,-5.1989,-35.4608,84.2,70,40,16.11,BR,1612730970
Winchester,51.0651,-1.3187,34.0,69,90,16.11,GB,1612731523
Mennecy,48.569,2.4438,33.8,80,75,8.05,FR,1612731523
Sishui,35.6489,117.2758,28.99,79,23,3.44,CN,1612731524
Tranas,58.0372,14.9782,12.2,92,86,6.91,SE,1612731524
Lensk,60.7253,114.9278,10.22,94,100,3.49,RU,1612731524
Lebu,-37.6167,-73.65,62.56,78,9,6.4,CL,1612731461
Cidreira,-30.1811,-50.2056,74.41,65,0,9.1,BR,1612730986
Sao jose da coroa grande,-8.8978,-35.1478,79.63,79,73,10.29,BR,1612731524
Beringovskiy,63.05,179.3167,0.43,89,100,14.61,RU,1612731021
Ixtapa,20.7,-105.2,75.2,69,20,12.66,MX,1612731111
Vanavara,60.34,102.2797,28.09,98,100,10.04,RU,1612731379
Andenes,69.3143,16.1194,32.0,74,75,20.71,NO,1612731524
Pecos,31.4229,-103.4932,77.0,7,1,25.32,US,1612731524
Oxford,51.7522,-1.256,33.8,69,75,23.02,GB,1612731524
Broken hill,-31.95,141.4333,59.0,58,0,5.75,AU,1612731524
Halifax,44.6453,-63.5724,30.2,55,100,8.05,CA,1612731238
Kontagora,10.3999,5.4695,81.63,15,92,7.4,NG,1612731525
Chilca,-12.5211,-76.7372,79.0,69,75,11.5,PE,1612731525
Roma,43.2128,-75.4557,27.0,74,90,14.97,US,1612731414
Sterling,39.0062,-77.4286,39.99,81,75,11.5,US,1612731376
Esperance,-33.8667,121.9,62.6,88,75,13.8,AU,1612730993
Saint-pierre,-21.3393,55.4781,80.6,74,0,4.61,RE,1612730967
Truth or consequences,33.1284,-107.2528,69.01,11,1,6.91,US,1612731525
Tura,25.5198,90.2201,57.27,46,5,2.91,IN,1612731399
Camocim,-2.9022,-40.8411,82.02,75,20,13.44,BR,1612731525
Norman wells,65.282,-126.8329,-22.0,76,40,2.3,CA,1612730946
Coquimbo,-29.9533,-71.3436,68.0,60,0,13.8,CL,1612731397
San juan,-31.5375,-68.5364,94.96,20,6,19.55,AR,1612731402
Nantucket,41.2835,-70.0995,34.0,100,90,26.46,US,1612731412
Domoni,-12.2569,44.5319,80.04,77,100,5.97,KM,1612731526
Strezhevoy,60.7333,77.5889,15.8,73,100,20.13,RU,1612731526
El alto,-4.2714,-81.2147,77.9,66,8,16.8,PE,1612731526
Katakwi,1.8911,33.9661,73.11,43,48,4.92,UG,1612731526
Kenai,60.5544,-151.2583,10.0,85,1,4.61,US,1612731526
Vagay,57.9375,69.0217,-0.92,89,100,11.65,RU,1612731526
Tilichiki,60.4667,166.1,9.9,96,100,15.23,RU,1612731407
Bathsheba,13.2167,-59.5167,78.06,76,13,20.18,BB,1612731048
Ler,8.3018,30.1418,70.66,20,75,5.19,SS,1612731526
Georgetown,5.4112,100.3354,80.6,83,20,3.44,MY,1612730786
Athabasca,54.7169,-113.2854,-18.4,76,44,3.44,CA,1612731526
Marrakesh,31.6315,-8.0083,50.0,81,40,4.61,MA,1612731263
Oktyabrskoye,43.0645,44.7417,26.6,100,93,13.42,RU,1612731526
Balykshi,47.0667,51.8667,10.4,72,0,8.95,KZ,1612731527
Airai,-8.9266,125.4092,60.73,100,100,2.62,TL,1612731527
West lafayette,40.4259,-86.9081,8.01,56,1,9.22,US,1612731460
Chuy,-33.6971,-53.4616,71.04,71,41,10.42,UY,1612731014
Charters towers,-20.1,146.2667,77.9,85,100,8.14,AU,1612731132
Camargo,27.6667,-105.1667,76.19,15,19,5.82,MX,1612731527
Taicheng,38.731,113.228,23.72,76,0,2.73,CN,1612731527
Sofia,42.6975,23.3242,46.99,87,0,13.8,BG,1612731527
Mucurapo,10.6667,-61.5333,84.2,61,40,16.11,TT,1612731527
Srednekolymsk,67.45,153.6833,-10.17,84,98,3.89,RU,1612731092
Nyurba,63.2842,118.3319,-2.33,92,100,6.69,RU,1612731134
Svetlaya,46.5389,138.3297,1.96,83,100,12.5,RU,1612731527
Port said,31.2565,32.2841,62.6,82,0,6.91,EG,1612731506
Kosamba,21.4833,72.95,66.18,27,0,5.73,IN,1612731528
Clyde river,70.4692,-68.5914,-4.0,84,40,12.66,CA,1612731434
Umm lajj,25.0213,37.2685,72.05,28,0,22.79,SA,1612730913
Nampula,-15.1165,39.2666,77.0,83,40,5.75,MZ,1612731528
Filadelfia,39.9523,-75.1638,36.0,93,90,6.91,US,1612731526
Lata,40.1629,-8.3327,55.99,92,100,5.01,PT,1612730997
Barrow,71.2906,-156.7887,-23.8,76,1,11.5,US,1612731244
Henties bay,-22.116,14.2845,64.99,87,77,5.01,NA,1612731272
Leningradskiy,69.3833,178.4167,-14.53,82,0,6.78,RU,1612730944
Dafeng,23.4517,108.5881,66.76,64,12,1.79,CN,1612731528
Abu kamal,34.4506,40.9171,57.47,60,0,6.6,SY,1612731455
Ayan,56.45,138.1667,-5.85,85,100,21.5,RU,1612731529
Ordynskoye,54.3656,81.8994,14.41,94,6,12.46,RU,1612731529
Atasu,48.6814,71.6433,24.22,95,100,14.99,KZ,1612730985
Manokwari,-0.8667,134.0833,78.93,78,100,2.39,ID,1612731529
Bereda,43.2686,-7.5406,48.0,99,100,15.01,ES,1612731037
Williams lake,52.1415,-122.1445,6.8,72,75,4.61,CA,1612731529
Asfi,32.2994,-9.2372,58.03,72,95,5.93,MA,1612731303
Pochutla,15.7432,-96.4661,84.2,65,75,9.22,MX,1612731529
Saurimo,-9.6608,20.3916,66.65,94,100,4.88,AO,1612731432
Upernavik,72.7868,-56.1549,18.34,79,2,2.84,GL,1612731052
Saquarema,-22.92,-42.5103,73.4,88,75,4.61,BR,1612731467
Chokurdakh,70.6333,147.9167,-18.98,87,100,8.77,RU,1612730993
Sorong,-0.8833,131.25,78.6,86,86,5.19,ID,1612731530
Grootfontein,-19.5667,18.1167,68.0,94,100,3.44,NA,1612731530
Linxia,35.6003,103.2064,29.55,74,0,1.01,CN,1612731530
Baturaja,-4.1333,104.1667,72.18,94,100,3.29,ID,1612731530
Yanam,16.7333,82.2167,69.22,86,71,3.06,IN,1612731530
Gimli,50.6336,-96.9907,-16.6,48,57,9.22,CA,1612731530
Oistins,13.0667,-59.5333,77.85,76,6,20.62,BB,1612731042
Talaya,61.3833,152.75,-7.96,88,100,8.97,RU,1612731530
Shenkursk,62.1091,42.896,-18.63,86,96,7.87,RU,1612731530
Port macquarie,-31.4333,152.9167,72.0,87,100,1.01,AU,1612731193
Hofn,64.2539,-15.2082,37.18,82,100,15.17,IS,1612731295
Hami,42.8,93.45,31.28,77,70,3.69,CN,1612731409
Russell,32.3502,-85.1999,55.4,47,1,5.75,US,1612731531
Sao joao da barra,-21.6403,-41.0511,71.6,100,90,7.23,BR,1612731294
Fray bentos,-33.1325,-58.2956,91.0,31,0,5.01,UY,1612731531
Bubaque,11.2833,-15.8333,77.4,67,11,15.7,GW,1612730851
Broome,42.2506,-75.833,28.99,74,90,8.05,US,1612731006
Hobyo,5.3505,48.5268,77.79,78,1,19.77,SO,1612731371
Biak,-0.9131,122.8766,77.23,79,100,2.59,ID,1612731523
Hualmay,-11.0964,-77.6139,75.79,66,98,9.22,PE,1612731531
Altona,53.55,9.9333,26.6,46,90,20.71,DE,1612731531
Evensk,61.95,159.2333,16.32,89,100,36.91,RU,1612731382
Ilulissat,69.2167,-51.1,24.8,39,0,6.91,GL,1612731044
Babstovo,48.1167,132.4833,-13.99,85,7,9.15,RU,1612731531
Chilapa,22.032,-105.2317,89.8,24,0,8.63,MX,1612731532
Monywa,22.1167,95.1333,62.17,47,0,6.89,MM,1612731532
Lagoa,39.05,-27.9833,58.05,76,100,19.77,PT,1612731088
Provideniya,64.3833,-173.3,-3.8,81,64,16.44,RU,1612731010
Safaga,26.7292,33.9365,62.6,67,0,6.69,EG,1612731249
Pachino,36.7186,15.0907,60.8,72,75,4.61,IT,1612731532
Canto do buriti,-8.11,-42.9444,82.47,64,82,3.44,BR,1612731532
Mehamn,71.0357,27.8492,28.4,74,75,29.93,NO,1612730968
Altay,47.8667,88.1167,20.95,82,53,3.38,CN,1612731365
Owando,-0.4819,15.8999,78.28,72,81,4.05,CG,1612731425
Barabinsk,55.3571,78.357,11.7,95,100,17.27,RU,1612731532
Yulara,-25.2406,130.9889,73.4,35,0,6.91,AU,1612731007
Huarmey,-10.0681,-78.1522,76.64,62,99,10.2,PE,1612731532
Ban dung,17.699,103.2596,70.0,77,0,7.49,TH,1612731532
Waingapu,-9.6567,120.2641,77.81,81,55,7.05,ID,1612731478
Vestmannaeyjar,63.4427,-20.2734,38.55,75,35,22.01,IS,1612731375
Stege,54.987,12.2846,30.0,10,100,34.58,DK,1612731533
Sao filipe,14.8961,-24.4956,69.87,74,100,13.65,CV,1612731029
Prince rupert,54.3161,-130.3201,33.8,60,1,12.66,CA,1612731363
Khasan,42.4308,130.6434,7.03,86,84,18.9,RU,1612731533
Takoradi,4.8845,-1.7554,80.44,86,99,11.36,GH,1612731533
Zilair,52.2332,57.4392,-11.74,89,100,12.93,RU,1612731533
Ahipara,-35.1667,173.1667,68.63,66,13,10.04,NZ,1612731533
Pundaguitan,6.3711,126.1689,79.41,84,100,8.5,PH,1612731533
Fukue,32.6881,128.8419,50.04,64,81,24.54,JP,1612731533
Bakchar,57.0186,82.0711,11.48,94,100,13.29,RU,1612731534
Kysyl-syr,63.8986,122.7617,-26.0,84,92,10.31,RU,1612731534
Tocopilla,-22.092,-70.1979,73.24,59,50,4.25,CL,1612731501
Christchurch,-43.5333,172.6333,73.0,72,8,4.61,NZ,1612731425
Torbay,47.6666,-52.7314,30.99,64,20,26.46,CA,1612731231
Dzhebariki-khaya,62.2167,135.8,-34.08,81,58,1.07,RU,1612731534
Lamu,-2.2717,40.902,80.6,78,20,6.91,KE,1612731250
Mabaruma,8.2,-59.7833,76.44,90,100,5.53,GY,1612731534
Buala,-8.145,159.5921,81.95,79,57,6.38,SB,1612731534
Patterson,37.4716,-121.1297,61.0,58,1,3.94,US,1612731534
Hamilton,39.1834,-84.5333,24.01,33,75,4.61,US,1612731359
Lashio,22.9333,97.75,50.97,98,1,2.08,MM,1612731534
Tautira,-17.7333,-149.15,86.0,62,20,5.75,PF,1612731054
Kailua,21.4022,-157.7394,75.2,46,20,3.44,US,1612731535
Kondinskoye,59.6481,67.41,0.45,93,100,12.39,RU,1612731535
Lavumisa,-27.31,31.892,73.42,91,98,1.19,SZ,1612731535
Ponta delgada,37.7333,-25.6667,57.99,82,40,12.66,PT,1612731535
Tarnogskiy gorodok,60.4997,43.5761,-18.17,87,100,7.76,RU,1612731535
Glenwood springs,39.5505,-107.3248,48.2,54,1,19.57,US,1612731535
Ngunguru,-35.6167,174.5,70.0,74,88,7.0,NZ,1612731535
Ust-kut,56.7938,105.7672,20.28,95,100,4.34,RU,1612731535
Vardo,70.3705,31.1107,23.0,86,90,36.82,NO,1612730831
Talnakh,69.4865,88.3972,-20.13,74,19,2.75,RU,1612731402
Lompoc,34.6391,-120.4579,66.0,72,1,12.66,US,1612730848
Kruisfontein,-34.0033,24.7314,64.99,89,97,1.01,ZA,1612730816
Klaksvik,62.2266,-6.589,35.6,75,75,10.36,FO,1612731258
Bekobod,40.2208,69.2697,46.4,76,90,15.66,UZ,1612731536
Guerrero negro,27.9769,-114.0611,76.51,19,0,8.05,MX,1612731381
Turukhansk,65.8167,87.9833,8.28,95,99,18.63,RU,1612731536
Kalmunai,7.4167,81.8167,76.64,88,24,10.63,LK,1612731536
Faya,18.3851,42.4509,57.2,41,0,3.44,SA,1612731299
Port moresby,-9.4431,147.1797,77.0,94,90,10.36,PG,1612731318
Iralaya,15.0,-83.2333,81.72,67,11,9.33,HN,1612731536
Talwara,31.9486,75.8667,54.3,56,0,3.02,IN,1612731536
Skibbereen,51.55,-9.2667,37.4,70,90,24.16,IE,1612731536
Dolores,-36.3132,-57.6792,74.19,61,28,15.32,AR,1612731536
Vershino-darasunskiy,52.35,115.5167,-12.82,90,19,2.66,RU,1612731537
Denpasar,-8.65,115.2167,80.6,83,20,3.44,ID,1612731537
Vagur,61.4732,-6.8119,37.13,79,99,17.18,FO,1612731537
Ciudad bolivar,8.1222,-63.5497,89.71,45,100,12.95,VE,1612731104
Kampot,10.6167,104.1833,73.4,94,20,1.14,KH,1612731323
Tuatapere,-46.1333,167.6833,62.08,67,100,6.62,NZ,1612731316
Treinta y tres,-33.2333,-54.3833,82.2,53,7,6.11,UY,1612731537
Juarez,31.7333,-106.4833,69.01,13,1,12.66,MX,1612731334
Plunge,55.9114,21.8442,6.8,78,40,4.61,LT,1612731537
Huron,41.1501,-82.5499,15.01,69,100,5.01,US,1612731537
Nizhniy kuranakh,58.8353,125.4869,-22.5,81,0,1.21,RU,1612731538
Bilibino,68.0546,166.4372,0.25,75,1,6.31,RU,1612731538
Breyten,-26.3018,29.987,56.73,96,48,0.81,ZA,1612731538
Banon,40.8382,-1.1909,48.2,71,100,21.03,ES,1612731538
Vaitape,-16.5167,-151.75,81.32,74,1,12.01,PF,1612731517
Los llanos de aridane,28.6585,-17.9182,62.6,72,20,4.61,ES,1612731425
Illela,13.7292,5.2975,76.93,14,92,10.2,NG,1612731538
Lasa,46.6166,10.7002,39.2,100,90,2.64,IT,1612731234
Mareeba,-17.0,145.4333,80.01,100,100,1.81,AU,1612730987
Caravelas,-17.7125,-39.2481,76.82,90,100,8.61,BR,1612731538
Kadipaten,-8.1357,113.2158,74.98,88,100,4.0,ID,1612731538
Sarangani,5.4033,125.4636,81.12,79,100,6.04,PH,1612731538
Myre,69.1036,15.9492,32.0,74,75,20.71,NO,1612731538
Quatre cocos,-20.2078,57.7625,80.6,78,75,9.22,MU,1612731538
Amalapuram,16.5833,82.0167,66.74,90,54,3.0,IN,1612731320
Portland,45.5234,-122.6762,46.99,66,75,13.8,US,1612731539
Xuddur,4.1213,43.8894,71.78,64,7,16.55,SO,1612731539
Mildura,-34.2,142.15,55.4,71,0,6.91,AU,1612731539
Tonantins,-2.8731,-67.8022,89.01,60,82,2.73,BR,1612731539
Badiraguato,25.3667,-107.5167,80.01,41,75,6.91,MX,1612731539
Mariinsk,56.2139,87.7472,17.1,94,69,8.39,RU,1612731539
Scarborough,54.2797,-0.4044,34.0,65,100,11.99,GB,1612731539
Ferme-neuve,46.7001,-75.4493,23.0,63,100,5.75,CA,1612731539
Panlaitan,12.1191,119.8486,80.1,75,99,1.83,PH,1612731539
Loei,17.4167,101.5,75.0,61,0,1.66,TH,1612731539
Arcoverde,-8.4189,-37.0539,84.61,25,100,6.55,BR,1612731539
Gdynia,54.5189,18.5319,18.0,79,75,11.5,PL,1612731540
Sur,22.5667,59.5289,64.36,73,0,4.34,OM,1612731402
Orlik,52.5178,99.825,2.57,81,99,1.77,RU,1612731540
Bernalillo,35.05,-106.6673,62.01,15,1,4.61,US,1612731540
Progreso,21.2833,-89.6667,89.6,48,75,6.91,MX,1612731433
Pouembout,-21.1333,164.9,79.5,70,60,1.72,NC,1612731540
Burnie,-41.0667,145.9167,55.0,74,100,5.99,AU,1612731540
Chapais,49.7834,-74.8492,15.8,73,90,9.22,CA,1612731540
Moramanga,-18.9333,48.2,67.06,94,100,1.61,MG,1612731540
Tessalit,20.1986,1.0114,64.63,26,100,11.05,ML,1612731327
Husavik,66.0449,-17.3389,32.0,80,90,2.3,IS,1612731541
Coruripe,-10.1256,-36.1756,79.34,78,52,15.9,BR,1612731431
Smirnykh,49.75,142.8333,0.99,88,100,8.93,RU,1612731541
Saiki,32.95,131.9,47.14,69,0,8.01,JP,1612731541
Dhidhdhoo,6.8833,73.1,81.05,73,95,7.4,MV,1612731541
Tobermory,45.2501,-81.6665,17.6,67,100,21.85,CA,1612731541
Capao bonito,-24.0058,-48.3494,70.99,70,2,8.48,BR,1612731501
Labuhan,-6.8844,112.2051,78.37,86,100,10.07,ID,1612731351
Jumla,29.2747,82.1838,35.24,57,0,6.11,NP,1612731189
Lufilufi,-13.8745,-171.5986,78.01,94,99,10.0,WS,1612731541
Gondanglegi,-7.7479,112.0132,74.8,91,100,7.02,ID,1612731542
San roque,36.2107,-5.3842,57.2,72,75,11.5,ES,1612731542
Japura,-0.3167,102.35,72.9,90,100,1.05,ID,1612731390
Marienburg,54.0359,19.0266,10.99,100,25,12.15,PL,1612731272
Fallon,39.4735,-118.7774,57.99,24,20,4.61,US,1612731542
Rongcheng,30.634,117.8517,48.33,88,100,7.81,CN,1612731542
Lavrentiya,65.5833,-171.0,-9.89,85,0,9.37,RU,1612730977
Muzhi,65.3667,64.6667,-14.57,89,100,22.03,RU,1612731543
Muros,42.7762,-9.0603,55.99,92,100,1.99,ES,1612731370
Saint-francois,46.4154,3.9054,39.2,81,90,2.3,FR,1612731065
Batetskiy,58.6461,30.3027,5.86,95,66,4.85,RU,1612731543
Richards bay,-28.783,32.0377,75.72,93,56,7.27,ZA,1612731188
Palamedu,10.1167,78.1167,66.85,75,0,5.28,IN,1612731543
Pombia,45.653,8.6336,41.0,100,75,6.91,IT,1612731543
Codrington,-38.2667,141.9667,57.06,71,100,11.95,AU,1612731219
Bontang,0.1333,117.5,78.85,81,100,1.92,ID,1612731543
Sao felix do xingu,-6.6447,-51.995,80.98,82,54,2.66,BR,1612731465
Nabire,-3.3667,135.4833,75.6,79,78,3.11,ID,1612731543
Muroto,33.2833,134.15,53.6,59,1,18.43,JP,1612731482
Pedernales,18.0384,-71.744,84.87,51,15,0.43,DO,1612731543
Birnin kebbi,12.4539,4.1975,79.12,17,94,9.8,NG,1612731544
Woodway,31.506,-97.205,62.01,41,1,17.27,US,1612731434
Nakhon si thammarat,8.25,100.0,75.56,85,74,1.34,TH,1612731544
Nizhniy tsasuchey,50.5167,115.1333,-5.1,90,35,6.22,RU,1612731544
Mahebourg,-20.4081,57.7,80.6,78,75,9.22,MU,1612731128
Coos bay,43.3665,-124.2179,51.01,71,90,6.91,US,1612731429
Maceio,-9.6658,-35.7353,78.8,83,0,10.36,BR,1612731544
Dunedin,-45.8742,170.5036,61.0,88,87,1.01,NZ,1612731544
Sinnamary,5.3833,-52.95,78.33,84,100,14.36,GF,1612731206
Nome,64.5011,-165.4064,-5.01,84,1,3.91,US,1612731375
Abyek,36.0667,50.55,41.0,100,75,4.61,IR,1612731544
Troitsko-pechorsk,62.7084,56.1964,-24.12,85,100,8.55,RU,1612731545
Port blair,11.6667,92.75,77.45,82,10,11.77,IN,1612731545
Barranco,9.5167,-82.7,82.4,78,40,11.5,PA,1612731545
Waipawa,-41.4122,175.5153,68.0,77,75,19.57,NZ,1612731545
Bud,39.447,-86.1758,15.01,52,100,6.2,US,1612731545
Risti,58.9975,24.058,23.0,99,98,2.24,EE,1612731545
Chany,55.3121,76.7647,9.99,93,100,15.48,RU,1612731545
Pangai,-19.8,-174.35,77.0,100,90,11.5,TO,1612731468
Galle,6.0367,80.217,76.84,85,36,2.37,LK,1612731545
Cayenne,4.9333,-52.3333,82.4,78,90,13.8,GF,1612731545
Northam,51.0333,-4.2167,36.0,71,27,13.0,GB,1612731377
Odweyne,9.4092,45.064,66.27,45,16,9.37,SO,1612731546
Villarrica,-25.75,-56.4333,82.0,66,0,0.69,PY,1612730964
Enshi,30.3,109.4833,46.83,80,100,4.29,CN,1612731546
San fernando,15.0286,120.6898,73.4,83,40,2.3,PH,1612731546
Sedan,49.6667,5.0,32.0,94,100,5.99,FR,1612731546
Miri,4.4148,114.0089,78.8,94,40,5.75,MY,1612731546
Tokuyama,34.05,131.8167,48.2,93,75,4.61,JP,1612731546
Kidal,18.4411,1.4078,72.41,21,97,11.36,ML,1612730961
Dibrugarh,27.4833,94.9,58.6,58,0,4.36,IN,1612731546
Natal,-5.795,-35.2094,84.2,70,40,13.8,BR,1612731318
Necochea,-38.5473,-58.7368,59.0,84,100,16.51,AR,1612731406
Fort saint james,54.4333,-124.25,3.7,89,99,1.88,CA,1612731546
Radviliskis,55.8167,23.5333,-7.6,84,0,2.3,LT,1612731547
Jalu,29.0331,21.5482,66.79,26,97,13.91,LY,1612731423
Keroka,-0.7758,34.9453,57.51,99,100,2.28,KE,1612731547
Cabedelo,-6.9811,-34.8339,84.2,74,75,11.5,BR,1612731468
Zhezkazgan,47.8043,67.7144,29.08,99,100,23.64,KZ,1612731271
Aripuana,-9.1667,-60.6333,73.83,96,100,2.3,BR,1612731369
Vila velha,-20.3297,-40.2925,71.6,94,90,11.5,BR,1612731547
Chenghai,23.4632,116.768,62.6,88,75,2.24,CN,1612731547
Anzoategui,4.63,-75.0954,73.26,62,73,3.83,CO,1612731547
Wuwei,37.9281,102.6414,27.9,70,26,3.09,CN,1612731547
Adrar,20.5022,-10.0711,60.04,32,0,9.28,MR,1612731372
Coihaique,-45.5752,-72.0662,78.8,25,0,5.75,CL,1612731130
Winslow,35.0242,-110.6974,60.8,11,1,10.36,US,1612731311
Chicama,-7.8447,-79.1469,73.4,78,0,14.97,PE,1612731291
Bo phloi,14.3236,99.5161,73.65,65,0,1.21,TH,1612731548
Serenje,-13.2325,30.2352,65.25,96,100,3.71,ZM,1612731548
Elat,29.5581,34.9482,64.4,59,0,4.61,IL,1612731271
Ormara,25.2088,64.6357,68.27,48,0,10.25,PK,1612731314
Lluta,-16.0147,-72.0142,68.0,52,40,13.8,PE,1612731548
Mizan teferi,6.9833,35.5833,66.18,31,8,1.48,ET,1612731548
Taoudenni,22.6783,-3.9836,63.12,29,0,8.9,ML,1612731507
Tiznit,29.5833,-9.5,51.64,85,100,6.42,MA,1612731504
Kamaishi,39.2667,141.8833,25.34,86,3,13.29,JP,1612731367
Laguna,38.421,-121.4238,64.99,55,1,3.89,US,1612731301
Thinadhoo,0.5333,72.9333,81.7,73,45,8.68,MV,1612731549
Qasigiannguit,68.8193,-51.1922,24.8,39,0,6.91,GL,1612731549
Tutoia,-2.7619,-42.2744,84.2,79,20,13.8,BR,1612731364
Oktyabrskiy,54.4815,53.471,-4.88,88,100,12.91,RU,1612731549
Vikravandi,12.0333,79.55,66.65,84,95,6.98,IN,1612731549
Port augusta,-32.5,137.7667,62.6,72,0,9.22,AU,1612731549
Qostanay,53.1667,63.5833,6.8,85,90,13.42,KZ,1612731293
Abu dhabi,24.4667,54.3667,69.8,78,0,5.75,AE,1612731362
Marfino,55.7028,37.3822,8.6,78,75,6.71,RU,1612731549
Isabela,6.7085,121.9711,78.01,85,100,1.39,PH,1612731315
Mezen,65.8522,44.24,-18.94,88,93,6.64,RU,1612731549
Ust-karsk,52.7011,118.8077,-17.23,84,44,3.06,RU,1612731549
Nuuk,64.1835,-51.7216,32.0,43,56,11.5,GL,1612731523
Americus,32.0724,-84.2327,57.2,47,1,6.91,US,1612731550
Rosamorada,22.1222,-105.2058,89.08,24,22,7.92,MX,1612731550
Raga,8.4596,25.678,61.99,30,98,3.76,SS,1612731550
Bom jesus da lapa,-13.255,-43.4181,71.89,92,100,4.97,BR,1612731550
Porto novo,6.4965,2.6036,86.0,79,40,12.66,BJ,1612731487
Hong gai,20.956,107.0946,68.0,94,75,2.3,VN,1612731550
Homer,59.6425,-151.5483,24.01,80,1,5.75,US,1612731550
Bayonne,43.3333,-1.4167,46.4,87,75,3.44,FR,1612731550
Karagay,58.2667,54.9368,-12.69,88,100,10.04,RU,1612731550
Santa maria,-29.6842,-53.8069,86.0,51,20,5.75,BR,1612731113
Ouallam,14.3188,2.0866,79.7,17,21,9.24,NE,1612731551
Saint-georges,12.0564,-61.7485,80.6,74,75,19.57,GD,1612731243
Narasapur,16.45,81.6667,66.11,89,78,4.68,IN,1612731369
Sabzevar,36.2126,57.6819,50.92,47,100,1.41,IR,1612731551
Meulaboh,4.1363,96.1285,76.53,87,56,4.56,ID,1612731551
Basoko,1.2391,23.616,74.39,41,100,2.95,CD,1612731551
Yacuiba,-22.038,-63.6797,88.45,34,5,6.58,BO,1612731551
Inndyr,67.0338,14.0276,32.0,59,75,11.5,NO,1612731551
Khanpur,28.6453,70.6567,59.31,30,0,5.48,PK,1612731551
Viedma,-40.8135,-62.9967,64.0,57,82,15.64,AR,1612731023
Maniitsoq,65.4167,-52.9,26.26,80,0,15.59,GL,1612731551
Grojec,51.8625,20.8676,15.01,93,98,20.58,PL,1612731551
Xuanhua,40.6103,115.0447,20.39,77,0,4.79,CN,1612731552
Novato,38.1074,-122.5697,64.99,51,1,3.44,US,1612731552
Karasburg,-28.0167,18.75,76.41,35,0,20.2,NA,1612731552
Anadyr,64.75,177.4833,14.0,48,100,17.9,RU,1612731552
Ithaca,42.4406,-76.4966,23.0,86,90,11.5,US,1612731552
Calvinia,-31.4707,19.776,61.36,55,0,4.9,ZA,1612731552
San andres,12.5847,-81.7006,86.0,66,20,10.36,CO,1612731552
Marzuq,14.4,46.4667,60.67,64,0,2.91,YE,1612731055
Dangriga,16.9692,-88.2321,89.01,70,40,9.22,BZ,1612731552
Lakhimpur,27.95,80.7667,53.44,69,0,3.38,IN,1612731552
Camacari,-12.6975,-38.3242,84.2,74,40,17.27,BR,1612731552
Wajir,1.7471,40.0573,87.69,30,91,8.68,KE,1612731552
Alibag,18.6411,72.8792,75.2,46,26,7.34,IN,1612731552
Alice springs,-23.7,133.8833,73.99,37,52,5.75,AU,1612730938
Semporna,4.4818,118.6112,77.0,88,20,3.44,MY,1612731553
Monsenhor gil,-5.5642,-42.6078,93.2,49,20,6.91,BR,1612731553
Praia da vitoria,38.7333,-27.0667,57.2,77,40,14.63,PT,1612731553
Hamada,34.8833,132.0833,43.0,15,56,1.99,JP,1612731553
Edd,13.9297,41.6925,73.72,76,10,6.82,ER,1612731553
Xacmaz,41.4635,48.806,40.55,85,100,8.55,AZ,1612731553
Verkhnevilyuysk,63.4453,120.3167,-10.64,87,100,9.22,RU,1612731553
Golubitskaya,45.3222,37.2822,28.4,80,100,13.42,RU,1612731553
Pudozh,61.8099,36.5345,-11.4,90,23,3.87,RU,1612731553
White rock,49.0164,-122.8026,46.0,78,90,8.99,CA,1612731553
Ropczyce,50.0523,21.6089,21.0,86,90,18.41,PL,1612731553
Magway,20.15,94.9167,61.83,46,0,2.95,MM,1612731554
Suoyarvi,62.0833,32.35,1.74,94,92,5.48,RU,1612731554
Morant bay,17.8815,-76.4093,87.01,61,20,21.85,JM,1612731554
Kirkland lake,48.1446,-80.0377,6.8,66,100,9.71,CA,1612731554
Moroni,-11.7022,43.2551,81.45,75,98,8.52,KM,1612731554
Axim,4.8699,-2.2405,80.38,85,89,10.47,GH,1612731554
Luganville,-15.5333,167.1667,81.59,65,0,7.16,VU,1612731554
Alyangula,-13.8483,136.4192,80.6,89,75,9.22,AU,1612731319
Perelyub,51.8667,50.3667,-7.64,89,52,13.69,RU,1612731554
Lorengau,-2.0226,147.2712,82.18,78,100,6.64,PG,1612731549
Redwater,33.3582,-94.2544,42.8,75,90,6.91,US,1612731554
Zupanja,45.0775,18.6975,59.0,76,0,12.66,HR,1612731555
Koslan,63.4564,48.8989,-21.03,85,100,9.86,RU,1612731555
Arman,59.7,150.1667,11.32,84,100,18.05,RU,1612731555
Sri aman,1.2376,111.4621,75.2,100,95,0.72,MY,1612731555
Nishihara,26.1842,127.7558,62.6,59,1,3.44,JP,1612731555
Namatanai,-3.6667,152.4333,81.05,79,100,3.22,PG,1612731555
San cristobal,7.7669,-72.225,86.0,54,40,8.05,VE,1612731293
Itarema,-2.9248,-39.9167,81.39,76,0,14.45,BR,1612731509
Malanje,-9.5402,16.341,65.28,95,100,5.64,AO,1612731555
Oume,35.7839,139.2431,37.0,75,1,1.3,JP,1612731368
Urumqi,43.801,87.6005,12.2,85,100,4.47,CN,1612731515
Constantine,36.365,6.6147,44.6,81,40,6.91,DZ,1612731556
