City,Latitude,Longitude,Max Temp (F),Humidity (%),Cloudiness (%),Wind Speed (mph),Country,Date
Victoria,22.2855,114.1577,62.01,87,100,3.0,HK,1612937363
Rikitea,-23.1203,-134.9692,78.73,73,73,9.6,PF,1612937501
Hilo,19.7297,-155.09,71.6,68,90,10.36,US,1612937501
Mataura,-46.1927,168.8643,58.23,70,100,7.31,NZ,1612937502
Bredasdorp,-34.5322,20.0403,66.2,88,71,3.44,ZA,1612937502
Hobart,-42.8794,147.3294,69.01,45,20,11.5,AU,1612937220
Conceicao do araguaia,-8.2578,-49.2647,73.06,96,100,1.63,BR,1612937502
Catio,11.2833,-15.25,67.82,78,17,4.21,GW,1612937502
Puerto ayora,-0.7393,-90.3518,77.0,95,69,4.83,EC,1612937502
Faya,18.3851,42.4509,53.6,62,0,2.26,SA,1612937502
Geraldton,-28.7667,114.6,75.2,46,69,24.16,AU,1612937502
Catamarca,-28.4696,-65.7852,66.0,99,100,1.99,AR,1612937502
Pevek,69.7008,170.3133,-8.27,75,0,1.7,RU,1612937502
Kapaa,22.0752,-159.319,69.8,56,75,18.41,US,1612937503
Foggia,41.45,15.5333,55.4,67,40,5.75,IT,1612937503
Hami,42.8,93.45,42.37,55,100,1.57,CN,1612937503
Labuan,5.2767,115.2417,86.0,74,40,4.61,MY,1612937351
Cidreira,-30.1811,-50.2056,73.65,81,16,15.61,BR,1612937503
Kavaratti,10.5669,72.642,82.02,64,0,9.31,IN,1612937503
Bilibino,68.0546,166.4372,-6.74,87,11,3.44,RU,1612937503
Port alfred,-33.5906,26.891,73.0,92,6,1.01,ZA,1612937503
Maceio,-9.6658,-35.7353,73.4,94,20,3.44,BR,1612937349
Butaritari,3.0707,172.7902,81.91,79,67,18.72,KI,1612937503
Naze,28.3667,129.4833,62.6,59,75,9.22,JP,1612937503
Busselton,-33.65,115.3333,69.01,60,5,7.0,AU,1612937503
Coihaique,-45.5752,-72.0662,60.8,67,0,1.14,CL,1612937504
Qaanaaq,77.484,-69.3632,13.46,79,0,10.78,GL,1612937504
Vaini,-21.2,-175.2,78.8,94,90,14.97,TO,1612937504
Verkhnevilyuysk,63.4453,120.3167,-7.85,89,39,9.1,RU,1612937504
Esperance,-33.8667,121.9,66.2,63,90,21.85,AU,1612937504
Grindavik,63.8424,-22.4338,33.8,93,75,11.5,IS,1612937504
Atuona,-9.8,-139.0333,79.25,77,86,20.24,PF,1612937504
Kavieng,-2.5744,150.7967,83.21,74,99,2.71,PG,1612937504
Jati,24.3539,68.2671,80.29,27,99,6.42,PK,1612937504
Avarua,-21.2078,-159.775,80.6,83,95,3.44,CK,1612937504
Olimpia,-20.7372,-48.9147,71.6,64,0,6.91,BR,1612937505
Cape town,-33.9258,18.4232,71.01,88,0,11.5,ZA,1612937309
Cap-aux-meules,47.3821,-61.8597,21.2,68,16,16.11,CA,1612937505
Tongren,27.7172,109.1853,49.57,89,100,1.05,CN,1612937505
Bethel,41.3712,-73.414,21.0,86,90,4.47,US,1612937505
Dubrovka,53.6907,33.5071,5.0,85,40,4.47,RU,1612937505
Sao filipe,14.8961,-24.4956,70.23,75,44,7.47,CV,1612937505
Lokosovo,61.1333,74.8167,-16.94,87,52,10.27,RU,1612937505
Mgandu,-5.95,34.1333,61.95,94,99,3.22,TZ,1612937505
Chodavaram,17.8333,82.95,80.6,54,20,5.75,IN,1612937505
Airai,-8.9266,125.4092,72.07,88,99,3.98,TL,1612937505
Albany,42.6001,-73.9662,21.2,86,90,11.5,US,1612937233
Hermanus,-34.4187,19.2345,72.0,76,90,5.01,ZA,1612937506
Sedro-woolley,48.5039,-122.2361,28.0,93,1,1.63,US,1612937506
Kanniyakumari,8.0833,77.5667,80.82,52,20,21.47,IN,1612937506
Bluff,-46.6,168.3333,56.89,76,100,30.04,NZ,1612937506
Chokurdakh,70.6333,147.9167,-11.11,87,42,3.51,RU,1612937506
Port hardy,50.6996,-127.4199,33.8,93,40,3.44,CA,1612937506
Nome,64.5011,-165.4064,-5.8,45,1,8.05,US,1612937506
Codrington,-38.2667,141.9667,74.17,56,0,11.25,AU,1612937506
Arawa,-6.2132,155.5367,84.92,70,67,5.66,PG,1612937221
Jamestown,42.097,-79.2353,17.01,86,90,6.91,US,1612937507
Aksha,50.2814,113.2867,23.99,87,100,2.73,RU,1612937507
Longyearbyen,78.2186,15.6401,15.8,79,75,4.61,SJ,1612937507
Neiafu,-18.65,-173.9833,78.8,89,75,9.22,TO,1612937507
Bathsheba,13.2167,-59.5167,77.0,69,40,20.71,BB,1612937507
East london,-33.0153,27.9116,73.4,94,40,2.3,ZA,1612937507
Tongchuan,35.0806,109.0897,57.02,36,0,8.46,CN,1612937507
Cabo san lucas,22.8909,-109.9124,64.99,74,0,13.13,MX,1612937259
Egvekinot,66.3167,-179.1667,-16.1,72,0,9.22,RU,1612937507
Ribeira grande,38.5167,-28.7,60.49,78,100,25.88,PT,1612937508
Mar del plata,-38.0023,-57.5575,66.99,77,75,9.22,AR,1612937492
El retorno,2.3302,-72.6276,74.28,83,48,2.01,CO,1612937508
Clyde river,70.4692,-68.5914,-0.4,92,1,13.8,CA,1612937508
Nemuro,43.3236,145.575,28.4,46,20,8.05,JP,1612937508
Roros,62.5747,11.3842,6.8,85,75,1.14,NO,1612937508
New norfolk,-42.7826,147.0587,71.01,36,0,1.99,AU,1612937508
Mahebourg,-20.4081,57.7,82.4,74,75,8.05,MU,1612937508
Jiangdu,32.4286,119.5574,57.99,56,100,5.68,CN,1612937508
Bansang,13.4333,-14.65,70.86,20,36,4.76,GM,1612937508
Izhevsk,56.85,53.2333,-11.99,83,99,3.83,RU,1612937435
Grand-santi,4.25,-54.3833,68.25,97,45,1.86,GF,1612937508
Havre-saint-pierre,50.2334,-63.5986,-0.4,65,1,11.5,CA,1612937509
Ramshir,30.8946,49.4092,59.0,88,100,6.91,IR,1612937509
Mucurapo,10.6667,-61.5333,75.0,78,20,6.85,TT,1612937509
Carnarvon,-24.8667,113.6333,82.4,78,0,23.02,AU,1612937509
Pisco,-13.7,-76.2167,71.6,83,0,3.44,PE,1612937509
Northam,51.0333,-4.2167,32.0,80,47,11.99,GB,1612937509
Tuktoyaktuk,69.4541,-133.0374,-36.4,67,1,8.05,CA,1612937509
Zaykovo,57.5613,62.7568,-15.61,85,0,5.06,RU,1612937509
Ushuaia,-54.8,-68.3,62.6,72,0,2.3,AR,1612937344
Fortuna,40.5982,-124.1573,46.0,100,1,6.91,US,1612937509
Alofi,-19.0595,-169.9187,77.0,94,91,3.44,NU,1612937509
Provideniya,64.3833,-173.3,-4.0,71,0,22.37,RU,1612937510
Nabire,-3.3667,135.4833,86.86,67,15,9.24,ID,1612937510
Livingston,55.9029,-3.5226,28.4,86,90,5.75,GB,1612937510
Saldanha,-33.0117,17.9442,66.2,77,0,5.75,ZA,1612937510
Jumla,29.2747,82.1838,54.63,37,100,4.54,NP,1612937510
Laguna,38.421,-121.4238,55.99,76,90,4.61,US,1612937510
Ambilobe,-13.2,49.05,84.42,74,90,0.83,MG,1612937510
Ouadda,8.0777,22.4007,65.48,27,87,5.37,CF,1612937510
Dunedin,-45.8742,170.5036,61.0,74,88,1.99,NZ,1612937510
Salalah,17.0151,54.0924,77.0,31,75,10.36,OM,1612937510
Leningradskiy,69.3833,178.4167,-27.24,83,30,11.03,RU,1612937511
Barrow,71.2906,-156.7887,-20.2,69,1,21.85,US,1612937511
Cherepanovo,54.2222,83.381,-3.69,90,100,16.24,RU,1612937511
Pacific grove,36.6177,-121.9166,53.01,87,75,3.02,US,1612937280
Bengkulu,-3.8004,102.2655,85.01,66,90,10.6,ID,1612937511
Belaya gora,68.5333,146.4167,-17.1,88,48,4.38,RU,1612937511
Deputatskiy,69.3,139.9,-19.95,88,55,2.57,RU,1612937511
Sanquelim,15.5833,74.0,86.0,32,0,4.61,IN,1612937511
Saint-philippe,-21.3585,55.7679,87.8,55,0,12.66,RE,1612937511
Kaitangata,-46.2817,169.8464,60.01,69,100,4.0,NZ,1612937511
Ilulissat,69.2167,-51.1,17.6,45,0,5.75,GL,1612937511
San gabriel,34.0961,-118.1058,55.4,71,90,1.72,US,1612937511
Natal,-5.795,-35.2094,78.8,83,20,4.61,BR,1612937512
Arlit,18.7369,7.3853,65.53,22,3,8.23,NE,1612937512
Umm lajj,25.0213,37.2685,78.15,44,0,2.98,SA,1612937512
Moree,-29.4667,149.85,89.6,23,51,8.05,AU,1612937512
Agropoli,40.3469,14.9966,59.0,91,46,5.01,IT,1612937512
Tessalit,20.1986,1.0114,61.88,24,20,8.77,ML,1612937512
Oudtshoorn,-33.5907,22.2014,69.8,73,0,5.75,ZA,1612937512
Denia,38.8408,0.1057,55.99,50,16,11.01,ES,1612937512
Maria aurora,15.7967,121.4737,72.57,88,100,3.91,PH,1612937512
Punta arenas,-53.15,-70.9167,55.4,71,0,2.3,CL,1612937512
Essau,13.4839,-16.5347,68.0,56,100,5.75,GM,1612937512
Pacifica,37.6138,-122.4869,53.01,87,90,5.12,US,1612937513
Dikson,73.5069,80.5464,-24.02,88,100,10.4,RU,1612937513
Salinopolis,-0.6136,-47.3561,79.09,86,100,8.52,BR,1612937513
Praia da vitoria,38.7333,-27.0667,57.99,94,75,14.65,PT,1612937513
Sibolga,1.7427,98.7792,85.86,65,63,5.61,ID,1612937231
Wakkanai,45.4094,141.6739,24.8,68,75,21.85,JP,1612937513
Yulara,-25.2406,130.9889,98.6,32,40,14.97,AU,1612937513
Georgetown,5.4112,100.3354,89.6,70,20,9.22,MY,1612937513
Guerrero negro,27.9769,-114.0611,56.16,86,0,8.93,MX,1612937513
Vao,-22.6667,167.4833,77.92,80,12,13.6,NC,1612937513
Lorengau,-2.0226,147.2712,77.43,84,100,2.77,PG,1612937513
Creston,41.0586,-94.3614,6.8,66,90,6.91,US,1612937514
Iqaluit,63.7506,-68.5145,5.0,85,75,5.75,CA,1612937514
Belle fourche,44.6714,-103.8522,-0.99,65,90,9.22,US,1612937333
Bogdanovich,56.7803,62.0494,-14.17,85,28,9.26,RU,1612937514
Abnub,27.2696,31.1511,51.8,62,0,3.56,EG,1612937514
Flin flon,54.7682,-101.865,-16.02,88,100,3.69,CA,1612937514
San cristobal,7.7669,-72.225,67.19,89,85,1.59,VE,1612937514
Bairiki,1.3292,172.9752,82.4,78,75,12.66,KI,1612937514
Belyy yar,53.6039,91.3903,8.6,56,0,13.42,RU,1612937515
Lavrentiya,65.5833,-171.0,-15.09,78,0,11.97,RU,1612937515
Chiscas,6.5524,-72.4998,58.01,73,83,2.17,CO,1612937515
Thompson,55.7435,-97.8558,-34.6,74,1,6.91,CA,1612937515
Nanortalik,60.1432,-45.2371,25.07,87,10,15.97,GL,1612937515
San vicente,-26.6167,-54.1333,60.37,79,99,1.99,AR,1612937515
Roald,62.5833,6.1333,26.6,93,75,5.75,NO,1612937515
Ostrovnoy,68.0531,39.5131,6.58,93,100,17.74,RU,1612937515
Portland,45.5234,-122.6762,36.0,69,1,3.44,US,1612936827
Zaraza,9.3503,-65.3245,70.38,84,47,4.18,VE,1612937515
Faanui,-16.4833,-151.75,82.27,69,0,15.68,PF,1612937515
Nyimba,-14.5566,30.8149,70.66,94,100,3.22,ZM,1612937515
Matara,5.9485,80.5353,84.0,59,29,5.68,LK,1612937516
Segou,13.4317,-6.2157,69.24,22,0,9.15,ML,1612937516
Biak,-0.9131,122.8766,84.4,70,41,1.25,ID,1612937516
Viseu,40.661,-7.9097,51.01,92,90,8.01,PT,1612937516
Zhangjiakou,40.81,114.8794,40.78,54,0,0.85,CN,1612937516
Nhulunbuy,-12.2333,136.7667,82.4,83,75,10.36,AU,1612937516
Erenhot,43.6475,111.9767,31.41,92,2,10.29,CN,1612937516
Katsuura,35.1333,140.3,53.01,40,75,10.36,JP,1612937516
Vila franca do campo,37.7167,-25.4333,61.0,94,75,23.02,PT,1612937516
Port elizabeth,-33.918,25.5701,72.3,70,0,1.34,ZA,1612937325
Broome,42.2506,-75.833,19.4,73,90,4.61,US,1612937516
Barna,45.7167,22.05,43.0,100,90,2.3,RO,1612937516
Cap malheureux,-19.9842,57.6142,84.99,66,31,8.01,MU,1612937517
Wahiawa,21.5028,-158.0236,69.01,67,1,9.22,US,1612937517
Asau,46.4333,26.4,42.8,93,0,3.44,RO,1612937517
Xam nua,20.4197,104.0439,69.93,43,10,3.09,LA,1612937517
Khatanga,71.9667,102.5,-11.13,85,0,8.55,RU,1612937517
Arraial do cabo,-22.9661,-42.0278,72.16,87,8,3.83,BR,1612937517
Lebu,-37.6167,-73.65,59.5,87,0,8.43,CL,1612937517
Aras,42.5617,-2.356,41.0,93,90,2.3,ES,1612937517
Adrar,20.5022,-10.0711,57.58,30,39,8.14,MR,1612937517
Smithers,54.7804,-127.1743,-14.8,84,1,0.54,CA,1612937517
Ponta do sol,32.6667,-17.1,60.01,72,75,1.01,PT,1612937518
Saint george,37.1041,-113.5841,54.0,37,90,5.75,US,1612937518
Saskylakh,71.9167,114.0833,-24.21,82,0,11.27,RU,1612937518
Leuteboro,13.061,121.3747,79.0,84,94,4.0,PH,1612937518
Orange cove,36.6244,-119.3137,55.4,100,1,4.61,US,1612937518
Florianopolis,-27.6146,-48.5012,71.6,94,75,5.75,BR,1612937518
Iroquois falls,48.7669,-80.6831,-5.8,84,20,5.75,CA,1612937518
Tautira,-17.7333,-149.15,78.8,65,40,5.75,PF,1612937518
Torbay,47.6666,-52.7314,28.0,93,90,33.38,CA,1612937518
Chauk,20.8833,94.8167,86.68,23,0,7.36,MM,1612937519
Byron bay,-28.65,153.6167,73.4,78,75,12.66,AU,1612937519
Melioratorov,57.2107,65.6077,-18.4,76,0,6.71,RU,1612937226
Bartica,6.4,-58.6167,73.4,94,20,2.3,GY,1612937519
Severo-kurilsk,50.6789,156.125,25.88,91,90,5.7,RU,1612937519
Hastings,50.8552,0.5729,32.0,69,90,28.77,GB,1612937519
Yar-sale,66.8333,70.8333,-22.09,84,99,14.7,RU,1612937519
Carlton,45.2943,-123.1765,34.0,86,40,2.15,US,1612937519
Haines junction,60.7522,-137.5108,-38.2,67,25,1.14,CA,1612937519
Cherskiy,68.75,161.3,-6.61,86,0,1.61,RU,1612937519
Westport,41.1415,-73.3579,24.01,93,1,3.44,US,1612937516
Piacabucu,-10.4056,-36.4344,77.0,86,98,7.0,BR,1612937520
Half moon bay,37.4636,-122.4286,53.6,87,90,4.85,US,1612937520
Simdega,22.6167,84.5167,80.82,17,0,5.23,IN,1612937520
Upernavik,72.7868,-56.1549,9.66,75,0,2.48,GL,1612937520
Cabedelo,-6.9811,-34.8339,77.0,88,20,4.61,BR,1612937413
Mount gambier,-37.8333,140.7667,87.8,29,0,13.8,AU,1612937253
Wanning,18.8003,110.3967,65.1,88,100,10.13,CN,1612937520
Khipro,25.8285,69.3772,84.78,13,3,7.11,PK,1612937520
Pak phanang,8.3511,100.202,87.8,66,20,6.91,TH,1612937520
Kodiak,57.79,-152.4072,33.8,80,90,12.19,US,1612937521
Antropovo,58.3988,43.0066,-2.87,93,100,4.92,RU,1612937521
Gaziantep,37.0594,37.3825,46.4,93,75,4.41,TR,1612937521
Buraydah,26.326,43.975,48.2,87,0,2.3,SA,1612937480
Agadir,30.4202,-9.5982,57.2,100,75,3.44,MA,1612937284
Luganville,-15.5333,167.1667,82.63,73,99,5.84,VU,1612937521
Juba,4.8517,31.5825,85.05,23,82,3.71,SS,1612937522
Wanaka,-44.7,169.15,57.99,54,87,5.99,NZ,1612937522
Vung tau,10.346,107.0843,79.27,75,47,9.86,VN,1612937522
Velyka mykhaylivka,47.0794,29.8514,39.13,96,96,6.06,UA,1612937522
Darnah,32.767,22.6367,61.07,47,0,4.94,LY,1612937523
Jinzhou,41.1078,121.1417,44.46,49,0,6.2,CN,1612937523
Bambous virieux,-20.3428,57.7575,84.99,74,75,8.05,MU,1612937523
Beloha,-25.1667,45.05,73.2,91,100,8.28,MG,1612937523
Turukhansk,65.8167,87.9833,-3.39,89,100,12.97,RU,1612937523
Opuwo,-18.0607,13.84,67.8,85,100,2.66,NA,1612937523
Belinskiy,52.9647,43.4165,4.03,94,99,7.81,RU,1612937523
Castro,-24.7911,-50.0119,56.44,97,98,6.22,BR,1612937524
Ponta delgada,37.7333,-25.6667,61.0,94,75,23.02,PT,1612937524
Mirnyy,62.5353,113.9611,-4.0,91,100,4.85,RU,1612937524
Sri aman,1.2376,111.4621,89.6,70,40,2.3,MY,1612937524
Linkou,45.3,130.2833,25.45,92,82,3.47,CN,1612937524
Nikolskoye,59.7035,30.7861,1.0,77,20,2.21,RU,1612937524
Coquimbo,-29.9533,-71.3436,60.8,88,20,2.3,CL,1612937441
Karpogory,64.0019,44.4451,-16.71,89,37,1.9,RU,1612937524
Rosetown,51.5501,-108.0014,-18.4,69,100,9.22,CA,1612937383
Siloam springs,36.1881,-94.5405,28.4,93,90,4.61,US,1612937416
Popondetta,-8.7537,148.2534,86.27,69,100,4.36,PG,1612937525
Riyadh,24.6877,46.7219,60.8,39,0,9.22,SA,1612937230
Poum,-20.2333,164.0167,80.06,72,8,15.08,NC,1612937525
Ambon,-3.6954,128.1814,91.4,62,40,12.66,ID,1612937525
Trelaze,47.45,-0.4667,33.01,93,90,6.91,FR,1612937525
La union,-5.4,-80.75,77.09,69,100,8.39,PE,1612937525
Grafton,42.207,-71.6856,24.8,86,75,6.91,US,1612937241
Bintulu,3.1667,113.0333,87.8,74,40,4.61,MY,1612937525
Najran,17.4924,44.1277,53.6,76,0,2.24,SA,1612937345
Nouakchott,18.0858,-15.9785,59.0,44,79,10.36,MR,1612937371
Wageningen,51.9667,5.6667,23.0,86,75,10.36,NL,1612937526
Pangai,-19.8,-174.35,80.6,89,75,9.22,TO,1612937526
Lompoc,34.6391,-120.4579,46.4,93,90,3.44,US,1612937249
Vilcun,-38.65,-72.2333,55.4,100,0,1.16,CL,1612937526
Londrina,-23.3103,-51.1628,68.0,88,0,6.91,BR,1612937526
Kirakira,-10.4544,161.9205,84.58,73,35,6.51,SB,1612937526
Kousseri,12.0769,15.0306,59.0,21,56,5.75,CM,1612937527
Norman wells,65.282,-126.8329,-41.8,66,40,1.3,CA,1612937527
Rudnichnyy,59.617,52.4703,-17.5,88,30,3.44,RU,1612937527
Sitka,57.0531,-135.33,14.0,41,1,9.22,US,1612937528
Guildford,51.2354,-0.5743,32.0,74,90,10.36,GB,1612937528
Tahe,52.3333,124.7333,24.84,91,12,2.53,CN,1612937529
Henties bay,-22.116,14.2845,68.0,89,31,3.13,NA,1612937529
Gazojak,41.1875,61.4036,49.91,58,95,8.23,TM,1612937530
Yellowknife,62.456,-114.3525,-9.99,77,90,12.66,CA,1612937530
Zyryanka,65.75,150.85,-14.08,88,14,10.74,RU,1612937531
Maple creek,49.9168,-109.4848,-14.8,58,27,6.91,CA,1612937531
Saint-leu,-21.15,55.2833,84.99,58,89,4.45,RE,1612937531
Alamos,27.0167,-108.9333,62.58,38,49,2.64,MX,1612937531
Kruisfontein,-34.0033,24.7314,72.0,74,0,1.99,ZA,1612937532
Qeshm,26.9581,56.2719,75.2,33,57,4.61,IR,1612937532
Narsaq,60.9167,-46.05,32.0,29,0,28.77,GL,1612937532
Carutapera,-1.195,-46.02,77.79,86,100,4.16,BR,1612937532
Tiksi,71.6872,128.8694,-10.21,83,100,4.7,RU,1612937533
Tasiilaq,65.6145,-37.6368,12.2,67,75,4.61,GL,1612937533
Sokoto,13.0609,5.239,64.6,22,20,10.56,NG,1612937533
Llanes,43.4198,-4.7549,46.0,98,100,3.0,ES,1612937534
Gouyave,12.1646,-61.7296,77.0,78,20,16.11,GD,1612937534
Uvinza,-5.1036,30.3911,72.52,79,98,0.78,TZ,1612937534
Zalantun,48.0,122.7167,27.28,89,17,2.64,CN,1612937534
Vostok,46.4856,135.8833,8.91,93,100,5.01,RU,1612937534
Nayoro,44.3506,142.4578,26.6,80,75,10.36,JP,1612937534
Kapit,2.0167,112.9333,90.36,55,100,2.17,MY,1612937534
Berlevag,70.8578,29.0864,23.0,58,75,23.02,NO,1612937535
Salym,60.0625,71.4789,-18.4,87,88,5.66,RU,1612937535
Hasaki,35.7333,140.8333,53.6,35,75,10.36,JP,1612937535
Tabou,4.423,-7.3528,78.53,91,95,5.5,CI,1612937536
Robertsport,6.7533,-11.3686,78.66,88,86,6.26,LR,1612937536
Xuddur,4.1213,43.8894,76.12,47,47,26.08,SO,1612937536
Bertinoro,44.1469,12.1389,51.8,87,40,10.36,IT,1612937536
Kafanchan,9.5833,8.3,55.4,35,0,8.05,NG,1612937536
Miastko,54.0028,16.9826,10.99,89,66,3.58,PL,1612937536
Calvinia,-31.4707,19.776,78.8,36,0,11.5,ZA,1612937536
Buala,-8.145,159.5921,83.07,78,62,8.97,SB,1612937536
Disna,55.568,28.1971,4.68,94,96,5.84,BY,1612937536
Abu samrah,35.3029,37.1841,58.95,57,100,1.21,SY,1612937537
Delyatyn,48.5235,24.6247,28.4,86,75,3.06,UA,1612937537
Saint albans,51.75,-0.3333,28.99,93,75,10.36,GB,1612937537
Caborca,30.5838,-111.101,55.99,33,56,1.99,MX,1612937537
Coalinga,36.1397,-120.3602,57.0,69,78,1.95,US,1612937537
Linqiong,30.4159,103.4609,66.0,55,20,6.71,CN,1612937537
Shafranovo,53.9667,54.7667,-1.03,94,100,2.91,RU,1612937537
Solnechnyy,50.7214,136.6319,11.01,91,97,2.42,RU,1612937537
Plouzane,48.3833,-4.6167,33.8,93,90,18.41,FR,1612937538
Tura,25.5198,90.2201,79.32,22,41,4.12,IN,1612937538
Ayan,56.45,138.1667,12.45,86,88,13.91,RU,1612937538
Meulaboh,4.1363,96.1285,86.54,63,81,6.51,ID,1612937538
Durban,-29.8579,31.0292,78.01,88,75,2.3,ZA,1612937538
Alice springs,-23.7,133.8833,96.8,34,75,6.91,AU,1612937538
Chapais,49.7834,-74.8492,-5.8,92,1,9.22,CA,1612937538
Pangoa,-12.1167,-73.0,69.35,96,81,1.72,PE,1612937538
Souillac,-20.5167,57.5167,82.4,74,75,8.05,MU,1612937538
Sangar,63.9242,127.4739,-14.39,88,0,1.52,RU,1612937538
Sao jose da coroa grande,-8.8978,-35.1478,76.19,81,32,1.79,BR,1612937539
Beisfjord,68.3751,17.5988,1.4,85,20,2.3,NO,1612937539
Maragua,-0.7833,37.1333,66.2,77,40,1.52,KE,1612937539
Zhovkva,50.0583,23.9726,23.0,93,75,8.95,UA,1612937539
Xinxiang,35.3089,113.8672,61.57,30,0,5.21,CN,1612937539
Tromso,69.6496,18.957,23.0,93,90,6.91,NO,1612937420
Valdivia,-39.8142,-73.2459,60.8,82,0,1.14,CL,1612937539
Tuatapere,-46.1333,167.6833,57.83,63,98,12.91,NZ,1612937539
Poitiers,46.5833,0.3333,39.2,100,90,6.91,FR,1612937508
Aripuana,-9.1667,-60.6333,72.12,98,100,1.52,BR,1612937540
Terrace,54.5163,-128.6035,3.2,51,1,16.11,CA,1612937540
Luderitz,-26.6481,15.1594,64.24,82,0,8.68,NA,1612937540
San quintin,30.4833,-115.95,55.9,74,100,6.26,MX,1612937540
Ilam,26.9167,87.9167,66.51,38,40,5.97,NP,1612937540
Saint-francois,46.4154,3.9054,42.8,93,90,6.91,FR,1612937540
Dumraon,25.55,84.15,75.09,41,83,3.27,IN,1612937540
Mayo,38.8876,-76.5119,34.0,80,1,7.16,US,1612937540
Sur,22.5667,59.5289,77.58,42,100,14.27,OM,1612937540
Tilichiki,60.4667,166.1,9.84,94,88,8.66,RU,1612937540
Olafsvik,64.8945,-23.7142,27.75,97,100,20.6,IS,1612937541
Makakilo city,21.3469,-158.0858,69.8,56,1,4.61,US,1612937541
Santa fe,-31.6333,-60.7,68.0,91,100,3.0,AR,1612937352
Cayenne,4.9333,-52.3333,77.0,78,75,4.61,GF,1612937541
Bayir,37.2687,28.2167,57.2,82,75,3.44,TR,1612937541
Kabo,7.6994,18.629,65.91,26,70,3.49,CF,1612937541
Pandan,14.0453,124.1694,77.5,87,100,9.22,PH,1612937541
Togul,53.465,85.9128,4.17,90,100,17.31,RU,1612937541
Kijang,35.2442,129.2139,53.6,15,0,11.5,KR,1612937541
Yumen,40.2833,97.2,49.48,38,95,24.36,CN,1612937541
Ternate,0.8,127.4,84.51,72,97,6.91,ID,1612937541
Coahuayana,18.7333,-103.6833,65.84,88,0,3.22,MX,1612937541
La rioja,42.25,-2.5,41.0,93,90,2.3,ES,1612937542
Peace river,56.2501,-117.286,-18.4,63,75,6.91,CA,1612937542
Cockburn town,21.4612,-71.1419,76.75,77,0,19.84,TC,1612937542
Kieta,-6.2167,155.6333,84.24,72,68,9.08,PG,1612937542
Voh,-20.9667,164.7,80.04,68,30,7.99,NC,1612937542
Sokolo,14.7328,-6.1219,68.5,21,10,11.18,ML,1612937542
Khandbari,27.3747,87.2039,70.25,31,53,4.56,NP,1612937542
Pitimbu,-7.4706,-34.8086,77.0,88,20,4.61,BR,1612937542
Osorno,-40.5667,-73.15,64.4,63,0,2.3,CL,1612937542
Samarai,-10.6167,150.6667,86.2,68,100,14.34,PG,1612937542
Sadao,6.6388,100.4234,91.4,55,40,10.36,TH,1612937543
Filadelfia,39.9523,-75.1638,30.99,69,20,6.91,US,1612937285
Petatlan,17.5167,-101.2667,70.2,87,17,2.84,MX,1612937543
Evensk,61.95,159.2333,15.15,89,100,34.83,RU,1612937543
Magalia,39.8121,-121.5783,55.4,67,75,3.44,US,1612937543
Tangermunde,52.5446,11.9765,21.0,90,55,2.95,DE,1612937543
Inyonga,-6.7167,32.0667,66.0,96,100,2.44,TZ,1612937543
Burriana,39.889,-0.085,57.99,58,0,20.71,ES,1612937543
Saint anthony,45.0205,-93.218,1.4,60,1,4.61,US,1612937543
Djambala,-2.5447,14.7533,69.37,92,100,3.51,CG,1612937543
Ahuimanu,21.4447,-157.8378,71.6,49,75,17.27,US,1612937543
Berdigestyakh,62.0989,126.6992,-7.76,89,17,6.13,RU,1612937544
Gamba,-2.65,10.0,77.32,85,100,3.31,GA,1612937544
Launceston,-41.45,147.1667,71.01,34,0,8.05,AU,1612937544
Hirara,24.8,125.2833,71.6,64,75,16.11,JP,1612937544
Townsville,-19.25,146.8,84.2,74,75,16.11,AU,1612937322
Burns lake,54.2331,-125.7533,-27.4,75,52,2.53,CA,1612937544
Wellington,-41.2866,174.7756,64.99,68,75,20.71,NZ,1612937544
Harper,4.375,-7.7169,79.34,89,99,5.99,LR,1612937544
Mana,5.6592,-53.7767,75.74,83,82,9.84,GF,1612937544
Gat,31.61,34.7642,62.01,62,0,6.91,IL,1612937528
Moron,-34.6534,-58.6198,66.99,99,40,3.0,AR,1612937544
Tombouctou,20.0,-3.0,59.9,26,21,11.07,ML,1612937545
Zhigansk,66.7697,123.3711,-20.07,86,2,6.71,RU,1612937533
Teknaf,20.8624,92.3058,81.52,34,0,6.49,BD,1612937545
Boksitogorsk,59.474,33.8485,-1.28,92,88,3.65,RU,1612937545
Santa vitoria do palmar,-33.5189,-53.3681,67.15,90,0,6.42,BR,1612937545
Sandnessjoen,66.0217,12.6316,14.0,67,0,8.05,NO,1612937545
Rio gallegos,-51.6226,-69.2181,57.2,88,0,4.61,AR,1612937545
Hithadhoo,-0.6,73.0833,82.54,79,44,15.19,MV,1612937545
Mitu,1.1983,-70.1733,72.3,97,81,1.5,CO,1612937400
Hamilton,39.1834,-84.5333,23.0,74,90,8.05,US,1612937545
Suluq,31.6682,20.2521,56.41,43,0,7.83,LY,1612937546
Klaksvik,62.2266,-6.589,26.6,80,84,6.91,FO,1612937546
Paamiut,61.994,-49.6678,25.45,83,100,9.89,GL,1612937546
Rognan,67.0953,15.3878,12.0,87,0,5.01,NO,1612937329
Touros,-5.1989,-35.4608,77.0,88,40,4.61,BR,1612937546
Kota bahru,6.1333,102.2386,86.0,70,40,10.36,MY,1612937546
Pinhao,-25.6956,-51.6597,56.48,97,100,4.56,BR,1612937546
Beroroha,-21.6667,45.1667,76.42,83,99,3.44,MG,1612937546
Kaoma,-14.7833,24.8,66.85,95,100,4.14,ZM,1612937546
Senneterre,48.3835,-77.2328,-11.2,84,1,2.3,CA,1612937546
Fez,34.0372,-4.9998,48.2,93,20,5.75,MA,1612937546
Merauke,-8.4667,140.3333,84.76,75,99,5.19,ID,1612937547
Ancud,-41.8697,-73.8203,57.99,81,0,1.54,CL,1612937547
Cururupu,-1.8283,-44.8683,77.18,87,100,1.92,BR,1612937547
Minab,27.1467,57.0801,75.2,33,61,4.61,IR,1612937547
Falciu,46.2961,28.1408,47.25,80,95,8.57,RO,1612937547
Lat yao,15.751,99.7893,88.0,47,3,6.93,TH,1612937548
Pangody,65.85,74.4859,-19.19,87,77,15.12,RU,1612937548
Paranapanema,-23.3886,-48.7228,59.67,96,100,5.46,BR,1612937548
La ronge,55.1001,-105.2842,-22.0,69,100,3.44,CA,1612937548
Kimbe,-5.5502,150.1429,82.94,77,100,4.7,PG,1612937548
Agnibilekrou,7.1344,-3.2047,71.15,99,17,1.68,CI,1612937548
Dotnuva,55.35,23.9,5.0,78,0,5.75,LT,1612937548
Luwuk,-0.9516,122.7875,86.45,67,42,1.77,ID,1612937548
Guasdualito,7.2424,-70.7324,78.8,68,68,2.51,VE,1612937549
Hit,33.6416,42.8251,62.67,37,64,2.62,IQ,1612937549
Sparks,39.5349,-119.7527,44.6,65,75,3.44,US,1612937549
Ryotsu,38.0833,138.4333,46.4,71,75,21.85,JP,1612937549
Catuday,16.2923,119.8062,82.71,67,63,8.39,PH,1612937549
Lebedinyy,58.5167,125.5167,11.39,91,59,2.24,RU,1612937549
Dossor,47.5272,52.9811,25.68,97,100,17.94,KZ,1612937549
Hobyo,5.3505,48.5268,79.95,66,72,22.15,SO,1612937549
Port augusta,-32.5,137.7667,96.8,12,0,12.66,AU,1612937549
Mozarlandia,-14.7447,-50.5706,69.46,97,1,2.91,BR,1612937550
San ramon de la nueva oran,-23.1322,-64.326,66.99,99,99,1.9,AR,1612937300
Duisburg,51.4333,6.75,17.01,85,0,8.05,DE,1612937323
Pedra branca,-5.4542,-39.7172,70.61,96,100,2.53,BR,1612937551
Vila velha,-20.3297,-40.2925,78.01,100,90,2.3,BR,1612937551
Talaya,61.3833,152.75,-0.18,90,100,12.86,RU,1612937551
Westerland,54.9079,8.3033,23.0,86,75,16.11,DE,1612937551
Jibuti,11.5,42.5,78.8,69,1,13.65,DJ,1612937551
Rio claro,-22.4114,-47.5614,68.0,78,94,1.01,BR,1612937551
Pedernales,18.0384,-71.744,75.25,62,83,3.74,DO,1612937551
Kasulu,-4.5767,30.1025,67.95,88,100,0.96,TZ,1612937292
Lubumbashi,-11.6609,27.4794,64.4,94,75,4.21,CD,1612937552
Akyab,20.15,92.9,82.06,34,0,7.29,MM,1612937552
Arman,59.7,150.1667,21.92,88,93,21.74,RU,1612937552
Imeni poliny osipenko,52.4201,136.4853,12.25,92,0,5.06,RU,1612937552
Tara,56.8944,74.371,-16.58,87,49,5.99,RU,1612937552
Naivasha,-0.7167,36.4359,59.0,85,100,5.01,KE,1612937552
San patricio,28.017,-97.5169,69.8,100,90,6.91,US,1612937552
Namie,37.4833,141.0,51.01,41,62,1.01,JP,1612937553
Port hawkesbury,45.6169,-61.3485,19.0,79,1,5.75,CA,1612937553
Sola,-13.8833,167.55,82.87,75,85,10.83,VU,1612937553
Rawson,-43.3002,-65.1023,66.36,64,55,27.07,AR,1612937347
Dyersburg,36.0345,-89.3856,30.2,100,20,6.91,US,1612937540
Appleton,44.2619,-88.4154,1.4,51,1,8.05,US,1612937553
Shasta lake,40.6804,-122.3708,51.01,66,70,4.12,US,1612937553
Funadhoo,6.15,73.2667,82.58,66,84,11.54,MV,1612937553
Saint-paul,-21.0096,55.2707,75.0,90,82,1.01,RE,1612937554
Gorgan,36.8387,54.4348,46.4,100,90,4.61,IR,1612937554
Porto novo,6.4965,2.6036,82.4,83,40,5.75,BJ,1612937554
Kungurtug,50.5994,97.5228,20.43,91,100,4.7,RU,1612937554
Chulman,56.8479,124.9104,11.48,93,29,5.44,RU,1612937554
Khor,47.8861,134.9464,5.14,93,84,5.59,RU,1612937536
Rouvroy,50.3925,2.904,21.99,79,0,16.11,FR,1612937555
Lasa,46.6166,10.7002,37.0,100,90,5.75,IT,1612937555
Abu dhabi,24.4667,54.3667,69.8,94,75,2.3,AE,1612937555
Tecoanapa,16.5167,-98.75,74.79,80,0,4.99,MX,1612937555
Sadat,25.6833,83.2833,71.6,56,95,3.44,IN,1612937555
Durant,33.994,-96.3708,28.4,100,90,6.91,US,1612937555
Vangaindrano,-23.35,47.6,75.63,89,100,2.08,MG,1612937555
Quzhou,28.9594,118.8686,48.83,91,100,6.38,CN,1612937555
Krasnoselkup,65.7,82.4667,-15.68,88,100,12.37,RU,1612937556
Cooma,-36.2333,149.1333,75.2,38,40,14.97,AU,1612937556
Dunkirk,51.05,2.3667,23.0,86,50,1.99,FR,1612937556
Miri,4.4148,114.0089,86.0,79,40,6.91,MY,1612937556
Harer,9.3094,42.1258,62.94,33,38,4.61,ET,1612937556
Pop,40.8736,71.1089,53.6,62,100,2.3,UZ,1612937557
Yerbogachen,61.2767,108.0108,9.03,93,8,9.86,RU,1612937542
Makasar,-5.14,119.4221,86.0,74,40,10.36,ID,1612937557
Santa maria del oro,25.9333,-105.3667,51.6,41,0,4.72,MX,1612937557
High level,58.5169,-117.136,-16.6,69,90,10.36,CA,1612937557
Yuli,9.6989,10.2744,68.5,22,53,6.42,NG,1612937557
Glowno,51.9646,19.7157,14.0,85,90,1.14,PL,1612937557
Gravdal,68.1214,13.5031,12.2,85,0,1.14,NO,1612937557
Kolondieba,11.0882,-6.8926,68.38,25,19,4.03,ML,1612937558
Chkalovsk,56.7647,43.2433,6.8,85,90,6.71,RU,1612937558
Lagoa,39.05,-27.9833,59.43,82,99,25.7,PT,1612937558
San carlos de bariloche,-41.1456,-71.3082,62.6,55,0,6.91,AR,1612937558
Monroe,43.1501,-77.6831,21.99,73,40,13.8,US,1612937558
Mitsamiouli,-11.3847,43.2844,83.03,77,99,16.69,KM,1612937558
Arlington,32.7357,-97.1081,32.0,86,90,9.22,US,1612937441
Maniitsoq,65.4167,-52.9,19.27,84,0,6.11,GL,1612937558
San ramon,37.7799,-121.978,52.0,93,40,4.61,US,1612937558
Bubaque,11.2833,-15.8333,77.81,58,46,10.2,GW,1612937559
Ravar,31.2656,56.8055,64.78,23,4,2.26,IR,1612937559
Asyut,27.181,31.1837,51.8,62,0,3.78,EG,1612937559
Itarema,-2.9248,-39.9167,76.77,89,81,7.49,BR,1612937559
Doha,25.2867,51.5333,68.0,77,0,8.05,QA,1612937559
Honiara,-9.4333,159.95,82.15,78,79,8.28,SB,1612937559
Kiunga,-6.1219,141.2906,87.35,59,100,2.21,PG,1612937559
Korla,41.7597,86.1469,40.86,57,82,5.46,CN,1612937559
Okhotsk,59.3833,143.3,24.28,93,100,12.17,RU,1612937559
The pas,53.8251,-101.2541,-22.0,69,40,4.61,CA,1612937560
Inirida,3.8653,-67.9239,74.71,93,82,1.66,CO,1612937560
Saint-pierre,-21.3393,55.4781,87.8,55,0,12.66,RE,1612937560
Kolosovka,56.4678,73.611,-16.13,87,41,7.49,RU,1612937560
Russell,32.3502,-85.1999,59.0,94,90,2.35,US,1612937560
Brownsville,25.9018,-97.4975,73.4,88,90,6.91,US,1612937296
Kenitra,34.261,-6.5802,53.6,100,75,9.22,MA,1612937561
Muhlacker,48.95,8.8333,19.99,72,100,1.99,DE,1612937561
Khani,41.9563,42.9566,57.2,54,0,12.66,GE,1612937561
Dingle,10.9995,122.6711,84.2,74,49,3.58,PH,1612937561
Vardo,70.3705,31.1107,17.6,79,40,11.5,NO,1612937561
Picota,-6.9197,-76.3304,74.48,85,49,0.78,PE,1612937561
Tafresh,34.692,50.013,32.0,80,0,4.83,IR,1612937561
Cascais,38.6979,-9.4215,54.0,100,75,4.61,PT,1612937561
Svetlogorsk,52.6333,29.7333,10.11,96,99,6.98,BY,1612937561
Lisala,2.15,21.5167,70.83,43,77,0.36,CD,1612937562
Campo verde,-20.4167,-54.0667,71.6,68,0,8.05,BR,1612937562
Oktyabrskoye,43.0645,44.7417,32.0,100,40,2.24,RU,1612937562
Kahului,20.8947,-156.47,71.6,49,40,18.41,US,1612937562
Brae,60.3964,-1.353,33.48,89,23,7.4,GB,1612937562
Tianpeng,30.9866,103.9393,66.99,1,14,5.37,CN,1612937562
Bam,29.106,58.357,66.47,23,0,1.99,IR,1612937562
Sinnamary,5.3833,-52.95,76.35,81,88,11.32,GF,1612937563
Jardim,-21.4803,-56.1381,67.91,79,72,2.95,BR,1612937563
Presidente venceslau,-21.8761,-51.8439,68.22,72,33,7.94,BR,1612937563
Oskemen,49.9565,82.6119,10.4,52,43,15.66,KZ,1612937563
Hashtgerd,35.9642,50.6858,41.0,60,40,4.61,IR,1612937563
Ixtapa,20.7,-105.2,68.0,88,20,1.88,MX,1612937563
Mugan,35.9404,101.3842,45.16,42,100,4.61,CN,1612937563
Esna,25.2934,32.554,57.2,51,0,2.3,EG,1612937563
Leshukonskoye,64.8989,45.7622,-21.24,87,53,0.96,RU,1612937563
Biloxi,30.396,-88.8853,60.8,94,20,4.61,US,1612937313
Eenhana,-17.4667,16.3333,66.51,95,100,4.0,NA,1612937563
Owensboro,37.7742,-87.1133,30.99,86,90,6.91,US,1612937564
Omboue,-1.5746,9.2618,76.69,89,96,2.53,GA,1612937564
Hualmay,-11.0964,-77.6139,70.63,78,47,3.04,PE,1612937564
Te anau,-45.4167,167.7167,54.91,64,68,9.44,NZ,1612937564
Acolla,-11.7319,-75.5463,47.52,77,100,2.89,PE,1612937564
College,64.8569,-147.8028,-23.8,62,1,6.91,US,1612937564
Defiance,41.3334,-84.45,10.0,85,20,4.12,US,1612937564
Shagonar,51.5333,92.8,20.7,94,89,1.25,RU,1612937564
Chunoyar,57.4467,97.3217,4.66,88,62,11.45,RU,1612937564
Hofn,64.2539,-15.2082,33.67,88,100,4.29,IS,1612937564
Basco,20.4487,121.9702,73.99,84,96,24.61,PH,1612937564
Vestmannaeyjar,63.4427,-20.2734,40.8,69,100,17.49,IS,1612937565
Dali,25.7,100.1833,61.84,39,0,2.86,CN,1612937565
Buta,2.7858,24.73,71.37,40,98,1.19,CD,1612937565
Namibe,-15.1961,12.1522,72.61,78,99,2.57,AO,1612937565
Darhan,49.4867,105.9228,22.05,92,60,6.13,MN,1612937565
Corrente,-3.7367,-43.3394,71.65,95,100,1.43,BR,1612937565
North bend,43.4065,-124.2243,39.2,93,1,3.44,US,1612937565
Alta,69.9689,23.2717,24.01,93,90,2.3,NO,1612937565
Whitehorse,60.7161,-135.0538,-31.0,68,1,3.44,CA,1612937565
Casa nova,-9.4167,-41.1333,71.6,100,75,1.14,BR,1612937566
Prince rupert,54.3161,-130.3201,17.6,57,90,6.91,CA,1612937566
Garowe,8.4054,48.4845,75.94,27,67,18.16,SO,1612937566
Longyan,25.1072,117.0225,57.99,83,100,1.01,CN,1612937566
Maumelle,34.8668,-92.4043,32.0,91,100,3.0,US,1612937566
Santa maria,-29.6842,-53.8069,64.49,91,54,1.43,BR,1612937566
Kaduqli,11.0167,29.7167,73.62,20,62,9.44,SD,1612937566
Gorontalo,0.5412,123.0595,88.95,60,27,3.22,ID,1612937566
Buncrana,55.1333,-7.45,29.84,95,29,9.71,IE,1612937567
Labuhan,-6.8844,112.2051,83.48,80,75,10.56,ID,1612937567
Ligayan,4.6533,119.4706,83.23,69,7,3.29,PH,1612937567
Flinders,-34.5833,150.8552,73.0,65,52,3.0,AU,1612937567
Dapaong,10.8639,0.205,69.31,18,0,6.69,TG,1612937567
Isangel,-19.55,169.2667,82.51,69,1,11.61,VU,1612937567
Chingirlau,51.095,54.0814,1.67,94,100,15.99,KZ,1612937567
Salmas,38.1973,44.7653,37.4,65,0,4.61,IR,1612937567
Borovskoy,53.8,64.15,-14.06,85,0,8.5,KZ,1612937567
Ozernovskiy,51.5,156.5167,23.72,92,100,6.73,RU,1612937567
Kropotkin,45.4375,40.5756,40.24,94,90,8.72,RU,1612937568
Nefteyugansk,61.0998,72.6035,-20.2,76,40,8.95,RU,1612937568
El reten,10.6114,-74.2682,78.01,80,3,5.32,CO,1612937568
Taksimo,56.3444,114.8794,15.66,91,100,0.38,RU,1612937568
Port lincoln,-34.7333,135.8667,82.76,34,0,8.88,AU,1612937568
Sistranda,63.7256,8.834,15.8,92,20,10.36,NO,1612937568
Viru,-8.4167,-78.75,73.53,67,99,2.57,PE,1612937568
Nadym,65.5333,72.5167,-16.44,87,47,16.67,RU,1612937568
Voskresenskoye,56.8381,45.4317,5.32,95,100,6.55,RU,1612937568
Marsa matruh,31.3525,27.2453,44.6,100,0,2.3,EG,1612937568
Puerto escondido,15.85,-97.0667,76.53,76,0,5.46,MX,1612937418
Chuy,-33.6971,-53.4616,66.33,90,0,5.41,UY,1612937568
Yaan,7.3833,8.5667,74.17,88,89,5.35,NG,1612937569
Christchurch,-43.5333,172.6333,71.6,30,0,14.97,NZ,1612937537
Methoni,36.8197,21.7049,55.0,100,20,8.12,GR,1612937569
Agustin codazzi,10.0341,-73.2361,77.47,62,32,2.8,CO,1612937569
Tongliao,43.6125,122.2653,28.02,95,0,6.29,CN,1612937569
Port macquarie,-31.4333,152.9167,66.99,94,90,6.91,AU,1612937555
Katete,-0.7818,29.7544,76.89,40,100,1.1,UG,1612937569
Haimen,23.1935,116.6142,59.0,94,90,4.47,CN,1612937569
Gao,16.6362,1.637,69.42,19,0,10.96,ML,1612937569
Prijepolje,43.3719,19.6406,42.8,70,0,2.3,RS,1612937569
Port-cartier,50.0334,-66.8654,1.4,51,1,10.36,CA,1612937569
Yining,29.0361,114.5636,56.46,77,100,3.38,CN,1612937569
Saint-joseph,-21.3667,55.6167,87.8,55,0,12.66,RE,1612937569
Esil,51.9556,66.4042,-14.01,85,0,6.46,KZ,1612937570
San jose,37.3394,-121.895,51.8,76,75,1.21,US,1612937423
Waingapu,-9.6567,120.2641,86.7,66,80,12.44,ID,1612937570
Ilorin,8.5,4.55,73.4,94,27,5.08,NG,1612937570
Santa rosa del sur,7.9644,-74.0544,70.68,89,18,3.67,CO,1612937570
Shiyan,32.6475,110.7781,62.67,32,0,5.64,CN,1612937523
Shaunavon,49.6501,-108.4181,-23.8,62,36,2.3,CA,1612937570
Shimoda,34.6667,138.95,51.8,58,40,9.22,JP,1612937570
Sao joao da barra,-21.6403,-41.0511,71.73,89,24,4.79,BR,1612937570
