City,Latitude,Longitude,Max Temp (F),Humidity (%),Cloudiness (%),Wind Speed (mph),Country,Date
Norman wells,65.282,-126.8329,-14.8,76,20,11.5,CA,1613017360
Tonder,54.9331,8.8667,19.99,87,7,7.76,DK,1613017360
Kismayo,-0.3582,42.5454,77.16,81,80,16.2,SO,1613017360
Yellowknife,62.456,-114.3525,-18.0,83,40,5.75,CA,1613017280
Chaah,2.249,103.048,88.93,54,10,4.25,MY,1613017361
Segovia,41.1667,-4.0,45.0,75,100,9.44,ES,1613017361
Riyadh,24.6877,46.7219,53.6,35,0,3.2,SA,1613017361
Petropavlovsk-kamchatskiy,53.0452,158.6483,33.8,64,40,13.42,RU,1613017361
Bogense,55.5669,10.0886,19.99,88,95,8.01,DK,1613017361
Broome,42.2506,-75.833,21.99,49,90,3.44,US,1613017067
Serenje,-13.2325,30.2352,60.96,96,100,0.2,ZM,1613017361
Constitucion,-35.3333,-72.4167,61.74,92,36,2.86,CL,1613017361
Ostrovnoy,68.0531,39.5131,2.16,92,8,11.59,RU,1613017361
Shelburne,44.0787,-80.2041,15.01,85,100,6.33,CA,1613017340
Dores do indaia,-19.4633,-45.6017,65.43,97,5,0.34,BR,1613017361
Tautira,-17.7333,-149.15,84.0,65,75,5.75,PF,1613017361
Klaksvik,62.2266,-6.589,24.8,80,20,1.14,FO,1613017362
Bluff,-46.6,168.3333,52.52,86,100,28.19,NZ,1613017362
Husavik,66.0449,-17.3389,17.6,93,75,8.75,IS,1613017362
Jamestown,42.097,-79.2353,18.0,86,90,5.75,US,1613017289
Kapaa,22.0752,-159.319,73.4,53,20,3.44,US,1613017175
Cochrane,51.1834,-114.4687,-18.99,76,40,2.3,CA,1613017362
Lagoa,39.05,-27.9833,57.47,67,38,35.66,PT,1613017362
Geraldton,-28.7667,114.6,78.8,38,0,23.02,AU,1613017163
Hermanus,-34.4187,19.2345,66.0,89,2,3.0,ZA,1613017290
Cape town,-33.9258,18.4232,68.0,88,0,8.05,ZA,1613017268
Bonavista,48.6499,-53.1147,21.0,86,100,10.36,CA,1613017362
Alta floresta,-9.8756,-56.0861,72.0,95,100,1.16,BR,1613017362
Qaanaaq,77.484,-69.3632,6.62,76,69,11.25,GL,1613017363
Barrow,71.2906,-156.7887,-41.8,84,1,10.36,US,1613017363
Georgetown,5.4112,100.3354,87.01,89,40,5.75,MY,1613017315
Saint-philippe,-21.3585,55.7679,82.99,74,20,12.66,RE,1613017363
Bougouni,11.417,-7.479,71.53,21,0,4.21,ML,1613017363
Rikitea,-23.1203,-134.9692,78.57,78,7,12.3,PF,1613017363
Aginskoye,51.1,114.53,17.76,95,100,10.94,RU,1613017363
Westport,41.1415,-73.3579,30.99,64,90,2.51,US,1613017289
Veseloyarsk,51.2836,81.1056,-12.26,87,100,1.77,RU,1613017363
Chuy,-33.6971,-53.4616,68.68,88,27,9.35,UY,1613017302
Zlatoust,55.1711,59.6508,-7.44,91,91,3.0,RU,1613017222
Guliston,40.4897,68.7842,54.9,57,4,13.8,UZ,1613017364
Carnarvon,-24.8667,113.6333,80.6,65,0,20.71,AU,1613017088
Hami,42.8,93.45,36.82,65,76,8.23,CN,1613017142
Mago,53.2514,140.1822,18.9,94,83,10.54,RU,1613017364
Kodiak,57.79,-152.4072,37.4,70,90,35.68,US,1613017272
Ushuaia,-54.8,-68.3,64.4,48,40,14.97,AR,1613017302
Brae,60.3964,-1.353,34.43,83,23,12.15,GB,1613017366
Busselton,-33.65,115.3333,66.99,63,88,1.99,AU,1613017366
Bac lieu,9.285,105.7244,81.28,68,96,16.13,VN,1613017366
Urucara,-2.5364,-57.76,73.9,95,99,2.66,BR,1613017366
New norfolk,-42.7826,147.0587,75.99,30,97,3.0,AU,1613017366
Nikolskoye,59.7035,30.7861,6.8,78,75,2.24,RU,1613017366
Te anau,-45.4167,167.7167,55.87,63,99,7.11,NZ,1613017366
Necochea,-38.5473,-58.7368,61.0,95,0,3.0,AR,1613017366
Bambous virieux,-20.3428,57.7575,82.0,68,23,8.99,MU,1613017283
Bengkulu,-3.8004,102.2655,84.61,64,49,5.77,ID,1613017303
Mataura,-46.1927,168.8643,49.89,88,100,11.88,NZ,1613017171
Tura,25.5198,90.2201,76.12,31,0,2.37,IN,1613017366
Dikson,73.5069,80.5464,-22.65,86,1,4.56,RU,1613017292
Lata,40.1629,-8.3327,57.0,96,100,4.0,PT,1613017366
Taltal,-25.4,-70.4833,64.04,76,4,0.29,CL,1613017367
Borgarnes,64.5383,-21.9206,33.8,93,90,11.5,IS,1613017367
Davila,18.4726,120.5763,80.6,83,75,3.44,PH,1613017367
Abu dhabi,24.4667,54.3667,64.4,94,16,1.14,AE,1613017367
Solnechnyy,50.7214,136.6319,12.72,90,11,2.86,RU,1613017367
Khatanga,71.9667,102.5,-22.29,83,1,4.32,RU,1613017367
Vao,-22.6667,167.4833,76.46,82,22,15.93,NC,1613017367
Ilulissat,69.2167,-51.1,14.0,62,90,16.11,GL,1613017310
Vallenar,-28.5708,-70.7581,60.21,78,15,1.95,CL,1613017368
Labuhan,-6.8844,112.2051,83.07,78,100,6.42,ID,1613017368
Port alfred,-33.5906,26.891,72.0,95,11,1.99,ZA,1613017368
Malindi,-3.2175,40.1191,76.78,83,90,6.26,KE,1613017368
Vaini,-21.2,-175.2,84.2,79,20,13.8,TO,1613017368
Hithadhoo,-0.6,73.0833,81.79,79,31,12.68,MV,1613017306
Sitka,57.0531,-135.33,23.0,50,1,6.91,US,1613017369
Pevek,69.7008,170.3133,-17.25,71,0,1.23,RU,1613017369
Solton,52.8429,86.4787,-10.95,89,100,6.58,RU,1613017271
Cidreira,-30.1811,-50.2056,73.0,83,51,13.35,BR,1613017283
Aksu,41.1231,80.2644,42.49,55,15,2.66,CN,1613017369
Longyearbyen,78.2186,15.6401,5.0,66,75,20.71,SJ,1613017101
Novoagansk,61.9449,76.6625,-17.07,87,100,11.07,RU,1613017369
Gallup,35.5281,-108.7426,39.99,45,90,6.29,US,1613017369
Newton,42.337,-71.2092,24.8,63,91,8.05,US,1613017302
Dingle,10.9995,122.6711,85.42,70,4,5.5,PH,1613017369
Birao,10.2849,22.7882,62.73,28,14,4.85,CF,1613017370
Katsuura,35.1333,140.3,55.4,30,20,18.41,JP,1613017174
Westlock,54.1502,-113.8688,-20.2,63,78,6.91,CA,1613017370
Port elizabeth,-33.918,25.5701,71.6,94,75,4.61,ZA,1613017370
Marathon,44.9,-89.7668,-2.2,71,1,3.44,US,1613017370
Oriximina,-1.7656,-55.8661,75.38,89,100,2.62,BR,1613017370
Butaritari,3.0707,172.7902,81.7,76,100,13.91,KI,1613017370
Punta arenas,-53.15,-70.9167,55.4,88,75,9.22,CL,1613017370
Korla,41.7597,86.1469,39.02,62,95,7.38,CN,1613017370
Vincennes,48.85,2.4333,21.2,86,8,6.91,FR,1613017371
Mama,58.3106,112.8986,5.36,85,34,2.91,RU,1613017371
Atuona,-9.8,-139.0333,78.53,79,1,17.9,PF,1613017371
Hobart,-42.8794,147.3294,75.99,40,0,11.5,AU,1613017371
Airai,-8.9266,125.4092,72.63,86,98,3.47,TL,1613017170
Swellendam,-34.0226,20.4417,55.4,94,0,3.44,ZA,1613017371
Castro,-24.7911,-50.0119,61.14,96,100,7.4,BR,1613017372
Albany,42.6001,-73.9662,23.0,46,100,1.01,US,1613017088
Port hedland,-20.3167,118.5667,89.6,66,14,17.27,AU,1613017372
Roma,43.2128,-75.4557,17.01,73,90,2.08,US,1613017372
Faya,18.3851,42.4509,50.0,81,0,1.3,SA,1613017372
Bataipora,-22.2953,-53.2711,68.68,91,97,1.63,BR,1613017372
Dargaville,-35.9333,173.8833,68.04,58,77,9.55,NZ,1613017372
Half moon bay,37.4636,-122.4286,53.01,71,1,6.91,US,1613017372
Lucapa,-8.4192,20.7447,64.71,95,100,2.93,AO,1613017372
Tingo maria,-9.2895,-76.0088,70.81,84,100,2.08,PE,1613017373
Luderitz,-26.6481,15.1594,66.22,79,88,7.18,NA,1613017373
Palana,59.1167,159.9667,15.4,96,86,10.25,RU,1613017373
Talnakh,69.4865,88.3972,-16.92,81,0,2.57,RU,1613017373
Cobourg,50.2667,10.9667,12.0,93,6,2.93,DE,1613017373
Dunedin,-45.8742,170.5036,60.01,61,71,21.0,NZ,1613017272
Aklavik,68.2191,-135.0107,-25.6,75,0,4.61,CA,1613017373
Mahebourg,-20.4081,57.7,82.0,68,24,8.99,MU,1613017373
Varhaug,58.6147,5.6457,19.99,67,0,3.44,NO,1613017373
Beringovskiy,63.05,179.3167,-23.28,85,78,14.5,RU,1613017373
Marzuq,14.4,46.4667,55.06,40,1,3.33,YE,1613017374
Rosetta,31.4044,30.4164,50.0,93,0,3.98,EG,1613017374
Bahia honda,22.9036,-83.1592,72.01,87,0,8.28,CU,1613017374
Puerto ayora,-0.7393,-90.3518,75.0,99,82,5.32,EC,1613017374
Sabang,5.8933,95.3214,83.01,71,10,7.96,ID,1613017374
Avarua,-21.2078,-159.775,84.2,70,100,6.91,CK,1613017374
Sibolga,1.7427,98.7792,86.92,59,77,3.94,ID,1613017374
Vila velha,-20.3297,-40.2925,75.2,94,40,2.3,BR,1613017374
Hilo,19.7297,-155.09,73.4,64,1,5.75,US,1613017374
Tessalit,20.1986,1.0114,64.54,21,1,10.18,ML,1613017375
Thompson,55.7435,-97.8558,-29.2,75,40,5.75,CA,1613017375
Guerrero negro,27.9769,-114.0611,56.73,76,56,14.85,MX,1613017375
Touros,-5.1989,-35.4608,80.6,78,20,9.22,BR,1613017375
Arraial do cabo,-22.9661,-42.0278,73.67,82,98,4.16,BR,1613017375
Mayo,38.8876,-76.5119,35.01,100,90,9.22,US,1613017375
Walvis bay,-22.9575,14.5053,68.0,88,99,4.61,NA,1613017375
Mar del plata,-38.0023,-57.5575,68.0,88,90,16.11,AR,1613017292
Itoman,26.1247,127.6694,64.4,88,75,21.85,JP,1613017375
Pitea,65.3172,21.4794,1.4,85,55,3.44,SE,1613017375
Victoria,22.2855,114.1577,66.99,76,1,1.99,HK,1613017092
Raudeberg,61.9875,5.1352,24.01,62,0,7.94,NO,1613017375
Upernavik,72.7868,-56.1549,-2.58,90,93,10.54,GL,1613017375
Taoudenni,22.6783,-3.9836,61.97,26,0,10.31,ML,1613017376
Pemba,-12.974,40.5178,77.38,87,100,11.14,MZ,1613017376
Lebu,-37.6167,-73.65,59.0,96,6,9.17,CL,1613017376
Saint-pierre,-21.3393,55.4781,82.99,74,20,12.66,RE,1613017376
Buraydah,26.326,43.975,48.2,100,0,2.3,SA,1613017376
Neiafu,-18.65,-173.9833,82.4,89,75,4.61,TO,1613017376
Vardo,70.3705,31.1107,21.2,58,75,17.27,NO,1613017304
Maracacume,-2.0428,-45.9592,74.12,96,100,2.93,BR,1613017377
Kenai,60.5544,-151.2583,19.99,79,90,16.11,US,1613017287
Burns lake,54.2331,-125.7533,-23.8,76,0,1.14,CA,1613017377
Chokurdakh,70.6333,147.9167,-12.62,89,27,5.5,RU,1613017377
Teguldet,57.3064,88.1667,-13.2,86,98,10.38,RU,1613017271
Divnomorskoye,44.5011,38.1353,49.06,90,96,7.36,RU,1613017377
Port hardy,50.6996,-127.4199,35.6,64,75,17.27,CA,1613017377
Agra,27.1833,78.0167,67.35,49,0,0.96,IN,1613017377
Ahipara,-35.1667,173.1667,68.41,64,69,11.16,NZ,1613017377
Laguna,38.421,-121.4238,57.0,71,1,8.05,US,1613017377
Cabo san lucas,22.8909,-109.9124,64.4,77,1,3.44,MX,1613017378
Cairns,-16.9167,145.7667,86.0,74,75,9.22,AU,1613017378
Iqaluit,63.7506,-68.5145,1.4,78,1,6.91,CA,1613017378
Kashi,39.4547,75.9797,44.6,24,20,4.47,CN,1613017378
Villarrica,-25.75,-56.4333,66.6,97,100,3.44,PY,1613017378
Gat,31.61,34.7642,53.01,87,0,1.14,IL,1613017378
Figueiro,41.2992,-8.1678,54.0,91,100,3.04,PT,1613017378
Bethel,41.3712,-73.414,25.0,80,90,1.77,US,1613017322
Paris,48.8534,2.3488,23.0,86,0,9.22,FR,1613017099
Matamoros,25.5333,-103.25,71.6,16,1,3.85,MX,1613017182
Acajutla,13.5928,-89.8275,77.14,73,1,5.48,SV,1613017361
Omboue,-1.5746,9.2618,78.75,88,99,1.7,GA,1613017379
Sao filipe,14.8961,-24.4956,70.48,73,22,8.41,CV,1613017379
Tuktoyaktuk,69.4541,-133.0374,-23.8,76,1,16.11,CA,1613017379
Pisco,-13.7,-76.2167,71.6,78,0,5.75,PE,1613017379
Ponta do sol,32.6667,-17.1,60.8,77,20,3.44,PT,1613017379
Cherskiy,68.75,161.3,-12.91,87,0,4.27,RU,1613017379
Praia da vitoria,38.7333,-27.0667,57.0,67,20,28.97,PT,1613017380
College,64.8569,-147.8028,3.0,71,75,2.46,US,1613017316
Nicoya,10.1483,-85.452,78.8,57,0,12.66,CR,1613017190
Cravo norte,6.3017,-70.2041,81.46,45,22,5.64,CO,1613017380
Saravena,6.9538,-71.8752,75.52,68,82,2.37,CO,1613017380
Port huron,42.9709,-82.4249,15.8,79,90,3.44,US,1613017380
Kruisfontein,-34.0033,24.7314,71.01,92,16,1.99,ZA,1613017099
Richards bay,-28.783,32.0377,74.48,82,98,2.04,ZA,1613017380
Thinadhoo,0.5333,72.9333,81.54,80,58,11.34,MV,1613017380
Chicama,-7.8447,-79.1469,74.12,72,100,3.71,PE,1613017381
Katobu,-4.9408,122.5276,90.59,53,80,5.19,ID,1613017381
Paramonga,-10.6667,-77.8333,73.17,69,75,3.87,PE,1613017381
Moroni,-11.7022,43.2551,81.27,74,100,14.81,KM,1613017381
Vestmannaeyjar,63.4427,-20.2734,40.95,69,100,27.94,IS,1613017381
Grand gaube,-20.0064,57.6608,82.0,68,50,8.99,MU,1613017381
Port augusta,-32.5,137.7667,104.0,11,99,24.16,AU,1613017381
Gilbues,-9.8317,-45.3439,72.59,88,95,0.51,BR,1613017382
Nanortalik,60.1432,-45.2371,22.93,86,54,9.95,GL,1613017382
Nemetker,46.7164,18.7631,28.11,92,100,24.52,HU,1613017382
Olafsvik,64.8945,-23.7142,36.37,83,100,19.24,IS,1613017382
Mezhdurechensk,53.6942,88.0603,-9.42,85,100,7.02,RU,1613017382
Breytovo,58.2993,37.8617,-0.35,93,100,6.96,RU,1613017382
Marang,5.2056,103.2059,81.19,71,57,3.96,MY,1613017382
Cao bang,22.6667,106.25,71.71,55,1,2.3,VN,1613017165
Mbini,1.574,9.6134,80.24,85,86,4.97,GQ,1613017382
Paso de patria,-27.2454,-58.5454,73.99,99,84,6.33,AR,1613017382
Olga,43.7444,135.2892,34.02,76,0,9.42,RU,1613017383
San policarpo,12.1791,125.5072,81.14,83,8,13.24,PH,1613017383
Qiongshan,20.0058,110.3542,66.2,72,75,6.71,CN,1613017383
Lompoc,34.6391,-120.4579,53.6,82,1,14.97,US,1613017383
Bahawalpur,29.4,71.6833,73.67,20,0,7.67,PK,1613017383
Tirana,41.3275,19.8189,53.6,87,90,8.05,AL,1613017383
Jiehu,35.5428,118.455,54.82,40,41,7.63,CN,1613017383
Bredasdorp,-34.5322,20.0403,57.2,94,0,1.14,ZA,1613017170
Portland,45.5234,-122.6762,42.01,66,95,2.37,US,1613017199
Kaitangata,-46.2817,169.8464,57.0,64,100,17.0,NZ,1613017098
Leningradskiy,69.3833,178.4167,-28.93,82,0,4.76,RU,1613017384
Nioro,13.35,-15.75,73.42,19,26,5.82,GM,1613017384
Micheweni,-4.9667,39.8333,81.28,75,100,8.14,TZ,1613017384
Cap malheureux,-19.9842,57.6142,82.0,68,43,8.99,MU,1613017384
Lima,-12.0432,-77.0282,77.0,69,0,5.75,PE,1613017320
Kupang,-10.1667,123.5833,86.0,79,75,10.36,ID,1613017384
Ozernovskiy,51.5,156.5167,24.37,96,100,13.02,RU,1613017384
San rafael del sur,11.8485,-86.4384,78.8,69,40,6.91,NI,1613017385
Mersing,2.4312,103.8405,83.5,67,48,11.16,MY,1613017385
Saskylakh,71.9167,114.0833,-21.66,84,0,5.95,RU,1613017385
Amahai,-3.3333,128.9167,87.75,62,100,5.53,ID,1613017385
Padre paraiso,-17.0742,-41.4844,64.18,96,47,1.43,BR,1613017385
Shar,49.5886,81.0453,-4.85,88,100,3.91,KZ,1613017385
Ossora,59.2353,163.0719,9.19,94,100,7.43,RU,1613017385
Freetown,8.484,-13.2299,77.05,82,82,5.1,SL,1613017385
Buncrana,55.1333,-7.45,30.69,91,69,14.81,IE,1613017386
Namwala,-15.7504,26.4384,65.75,97,100,2.44,ZM,1613017386
Morshansk,53.4435,41.8107,7.68,95,97,8.08,RU,1613017264
Taldan,53.6667,124.8,3.87,92,100,7.74,RU,1613017386
Souillac,-20.5167,57.5167,82.0,68,26,8.99,MU,1613017386
Russell,32.3502,-85.1999,57.2,94,75,2.42,US,1613017386
Tasiilaq,65.6145,-37.6368,12.2,48,87,6.91,GL,1613017386
Mamou,10.5,-12.0,66.27,32,0,2.28,GN,1613017386
Stornoway,58.2093,-6.3865,32.0,64,0,9.22,GB,1613017387
Port macquarie,-31.4333,152.9167,78.01,47,36,10.36,AU,1613017312
Araouane,18.9048,-3.5265,66.65,19,52,11.54,ML,1613017387
Jacareacanga,-6.2222,-57.7528,72.9,96,99,1.88,BR,1613017387
Manokwari,-0.8667,134.0833,82.74,75,100,2.84,ID,1613017387
Alekseyevsk,57.8406,108.3492,3.87,90,73,1.9,RU,1613017387
Tomatlan,19.9333,-105.25,61.83,91,0,1.3,MX,1613017322
San isidro,-12.1167,-77.05,77.0,69,0,5.75,PE,1613017388
Abha,18.2164,42.5053,50.0,81,0,1.32,SA,1613017388
Maningrida,-12.0667,134.2667,91.17,59,97,6.96,AU,1613017388
Kieta,-6.2167,155.6333,81.64,79,95,6.62,PG,1613017388
Fairmont,39.4851,-80.1426,27.0,93,100,4.52,US,1613017165
Maneromango,-7.1988,38.7848,73.4,88,75,8.05,TZ,1613017388
Manado,1.487,124.8455,86.11,69,22,5.57,ID,1613017388
Skibbereen,51.55,-9.2667,35.6,69,75,25.32,IE,1613017389
Chipinge,-20.1883,32.6236,64.26,100,91,3.04,ZW,1613017389
Pipar,26.3856,73.5378,72.5,20,11,7.67,IN,1613017389
Saldanha,-33.0117,17.9442,60.8,82,0,3.44,ZA,1613017389
Amursk,50.2261,136.8994,6.48,92,98,6.42,RU,1613017389
Robertson,36.5167,-86.8667,32.0,100,90,5.75,US,1613017389
Hamilton,39.1834,-84.5333,21.99,86,90,12.66,US,1613017389
Adeje,28.1227,-16.726,62.01,72,40,8.05,ES,1613017389
Salalah,17.0151,54.0924,75.2,41,0,13.8,OM,1613017389
Kenora,49.8167,-94.4337,-20.0,76,20,5.75,CA,1613017389
Mareeba,-17.0,145.4333,86.0,74,75,9.22,AU,1613017390
Hay river,60.8156,-115.7999,-20.2,76,38,5.75,CA,1613017390
Kathmandu,27.7167,85.3167,55.4,76,20,3.44,NP,1613017250
Samsun,41.25,36.3333,37.4,93,0,4.61,TR,1613017170
Saint george,37.1041,-113.5841,55.0,37,1,2.26,US,1613017254
Coquimbo,-29.9533,-71.3436,62.6,88,90,6.91,CL,1613017326
Wasilla,61.5814,-149.4394,18.0,92,1,1.79,US,1613017390
Boa esperanca,-21.09,-45.5658,63.91,92,2,3.98,BR,1613017391
Bam,29.106,58.357,59.27,29,0,1.74,IR,1613017391
Grindavik,63.8424,-22.4338,32.0,100,90,21.85,IS,1613017391
Bandarbeyla,9.4942,50.8122,73.89,74,100,14.83,SO,1613017391
Kisangani,0.5167,25.2,70.83,63,100,1.72,CD,1613017391
Barreirinhas,-2.7469,-42.8264,77.34,90,99,5.75,BR,1613017391
Vanderhoof,54.0166,-124.0198,-15.93,85,88,1.34,CA,1613017391
Banjar,-8.19,114.9675,86.0,74,20,10.36,ID,1613017392
Tabas,33.5959,56.9244,50.0,29,99,2.3,IR,1613017392
Ketchikan,55.3422,-131.6461,23.0,53,1,3.44,US,1613017392
Sal rei,16.1833,-22.9167,68.0,83,20,16.11,CV,1613017392
Along,28.1667,94.7667,72.55,32,40,0.27,IN,1613017392
Namatanai,-3.6667,152.4333,82.67,78,81,8.12,PG,1613017392
Bathsheba,13.2167,-59.5167,76.87,77,8,18.81,BB,1613017392
Asau,46.4333,26.4,36.0,73,100,3.11,RO,1613017392
Saint-georges,12.0564,-61.7485,77.68,76,0,15.26,GD,1613017392
Srednekolymsk,67.45,153.6833,-13.43,88,44,3.56,RU,1613017392
Karratha,-20.7377,116.8463,93.7,45,0,9.73,AU,1613017393
Kirakira,-10.4544,161.9205,84.81,71,100,7.92,SB,1613017297
Sobolevo,54.4299,31.8996,-0.33,93,100,5.03,RU,1613017393
Trairi,-3.2778,-39.2689,79.16,86,99,7.23,BR,1613017393
Bontang,0.1333,117.5,85.87,67,100,2.73,ID,1613017393
Rochegda,62.8,43.25,-12.55,87,36,4.0,RU,1613017393
Nome,64.5011,-165.4064,-7.6,45,1,10.36,US,1613017393
Zhuhai,22.2769,113.5678,68.0,77,40,14.97,CN,1613017393
Luganville,-15.5333,167.1667,84.04,67,33,3.36,VU,1613017393
Poum,-20.2333,164.0167,79.34,74,2,16.13,NC,1613017394
Mulege,26.8833,-111.9833,58.48,71,0,0.74,MX,1613017394
Hato mayor,18.7629,-69.256,75.2,100,40,5.75,DO,1613017394
Severo-kurilsk,50.6789,156.125,26.49,97,100,21.85,RU,1613017318
Okato,-39.2,173.8833,64.99,50,0,10.0,NZ,1613017395
Kuala terengganu,5.3302,103.1408,80.96,71,51,4.45,MY,1613017395
Puerto lopez,4.0845,-72.956,83.64,48,100,7.83,CO,1613017395
Sechura,-5.5569,-80.8222,77.13,71,91,7.76,PE,1613017395
Aktau,43.65,51.2,37.4,81,0,13.42,KZ,1613017395
Kaeo,-35.1,173.7833,71.01,74,97,5.99,NZ,1613017395
Mount gambier,-37.8333,140.7667,95.0,24,100,12.66,AU,1613017395
Yaviza,8.1537,-77.6931,71.74,94,20,1.16,PA,1613017395
Yaring,6.8662,101.3689,84.2,70,40,8.05,TH,1613017395
Oranjemund,-28.55,16.4333,64.51,85,80,5.12,NA,1613017395
Senador jose porfirio,-2.5908,-51.9542,74.79,93,100,3.04,BR,1613017395
Tuni,17.35,82.55,79.77,50,88,0.78,IN,1613017340
Chardara,41.2547,67.9692,51.82,60,50,7.14,KZ,1613017396
Tuy hoa,13.0833,109.3,73.0,73,85,14.25,VN,1613017396
Varkkallai,8.7341,76.7067,80.6,44,20,6.04,IN,1613017396
Tabou,4.423,-7.3528,77.7,90,9,5.75,CI,1613017396
Carballo,43.213,-8.691,57.0,91,100,3.0,ES,1613017396
Sao joao da barra,-21.6403,-41.0511,73.89,89,96,3.15,BR,1613017396
Codajas,-3.8367,-62.0569,74.55,96,100,1.57,BR,1613017396
Rabo de peixe,37.8,-25.5833,59.0,77,20,25.32,PT,1613017397
East london,-33.0153,27.9116,71.6,94,0,6.91,ZA,1613017363
Uvira,-3.4067,29.1458,73.08,69,100,2.42,CD,1613017397
Guigue,10.0853,-67.7792,66.31,88,8,4.43,VE,1613017397
Nehe,48.4833,124.8333,22.3,96,96,13.29,CN,1613017397
Zhangye,38.9342,100.4517,47.44,41,0,9.64,CN,1613017397
Mitu,1.1983,-70.1733,72.81,94,85,2.53,CO,1613017397
Hofn,64.2539,-15.2082,38.93,74,100,16.17,IS,1613017398
Santa isabel do rio negro,-0.4139,-65.0192,75.79,78,34,2.91,BR,1613017398
Harper,4.375,-7.7169,78.31,88,24,6.71,LR,1613017398
Humboldt,40.6665,-123.9178,45.0,100,1,2.26,US,1613017398
Mogadishu,2.0371,45.3438,75.78,82,78,17.49,SO,1613017398
Diego de almagro,-26.3667,-70.05,54.9,82,0,0.85,CL,1613017398
Bure,10.7,37.0667,52.68,46,90,4.18,ET,1613017398
Alofi,-19.0595,-169.9187,84.2,74,100,8.05,NU,1613017207
Namibe,-15.1961,12.1522,71.91,75,100,3.33,AO,1613017398
Samarai,-10.6167,150.6667,86.32,66,52,12.46,PG,1613017399
Clovis,36.8252,-119.7029,59.0,58,75,3.44,US,1613017200
Inirida,3.8653,-67.9239,76.05,84,100,3.18,CO,1613017399
Sorong,-0.8833,131.25,84.61,72,64,6.33,ID,1613017399
Ribeira grande,38.5167,-28.7,58.89,65,68,31.72,PT,1613017399
Lasa,46.6166,10.7002,32.0,69,40,8.05,IT,1613017399
Bubaque,11.2833,-15.8333,77.04,66,57,12.12,GW,1613017399
San andres,12.5847,-81.7006,80.6,69,20,6.91,CO,1613017399
Mattru,7.6244,-11.8332,74.14,93,29,0.78,SL,1613017399
Dhandhuka,22.3667,71.9833,74.08,21,100,7.25,IN,1613017399
Isangel,-19.55,169.2667,87.8,70,75,5.75,VU,1613017297
Vila franca do campo,37.7167,-25.4333,59.0,77,20,25.32,PT,1613017400
Kavieng,-2.5744,150.7967,82.02,79,86,8.43,PG,1613017400
Avera,33.194,-82.5271,60.8,97,90,2.95,US,1613017400
Berndorf,47.9457,16.1097,19.99,82,100,14.0,AT,1613017400
Smithers,54.7804,-127.1743,-13.0,84,1,1.07,CA,1613017400
Ban nahin,18.2418,104.2122,81.0,48,0,1.14,LA,1613017400
Faanui,-16.4833,-151.75,81.73,71,2,18.72,PF,1613017401
Tel aviv-yafo,32.0805,34.7805,52.0,87,0,1.14,IL,1613017401
Tiksi,71.6872,128.8694,-12.01,88,9,2.33,RU,1613017300
Muli,2.9167,73.5667,81.57,72,42,11.5,MV,1613017401
Jepelacio,-6.1167,-76.95,68.81,93,100,0.47,PE,1613017401
Provideniya,64.3833,-173.3,-11.2,70,0,17.9,RU,1613017401
Trinidad,-14.8333,-64.9,69.84,96,100,3.31,BO,1613017401
Torbay,47.6666,-52.7314,21.0,73,90,25.32,CA,1613017401
Ancud,-41.8697,-73.8203,64.0,88,0,4.61,CL,1613017401
Sorland,67.667,12.6934,30.07,98,94,12.19,NO,1613017401
Clyde river,70.4692,-68.5914,3.2,92,0,40.29,CA,1613017401
Huanren,41.2647,125.3667,37.44,74,0,7.63,CN,1613017402
Ereymentau,51.6199,73.1033,-10.64,89,97,2.77,KZ,1613017402
Cayenne,4.9333,-52.3333,75.2,100,90,1.14,GF,1613017402
Nishihara,26.1842,127.7558,64.4,77,90,25.32,JP,1613017402
Filingue,14.3521,3.3168,70.68,19,0,8.93,NE,1613017402
Tombouctou,20.0,-3.0,63.37,23,61,11.48,ML,1613017402
Kahului,20.8947,-156.47,73.4,56,40,14.97,US,1613017402
Tual,-5.6667,132.75,83.98,77,90,10.94,ID,1613017402
Ambon,-3.6954,128.1814,91.4,62,40,6.91,ID,1613017403
Belgrade,44.804,20.4651,42.8,93,75,17.27,RS,1613017403
Belaya gora,68.5333,146.4167,-16.64,88,22,1.79,RU,1613017403
Baoro,5.6667,15.9667,62.64,29,64,2.62,CF,1613017403
Banda aceh,5.5577,95.3222,85.44,64,8,3.76,ID,1613017403
Shache,38.4167,77.2406,46.42,48,8,8.55,CN,1613017403
Acaponeta,22.4964,-105.3594,59.83,84,0,2.13,MX,1613017403
Manzhouli,49.6,117.4333,14.32,95,100,9.42,CN,1613017403
Tinalmud,13.5941,122.878,81.63,78,0,6.78,PH,1613017404
Nemuro,43.3236,145.575,28.4,50,75,10.36,JP,1613017404
Turukhansk,65.8167,87.9833,-15.25,88,100,6.96,RU,1613017404
Imbituba,-28.24,-48.6703,69.8,94,0,3.4,BR,1613017404
Ziarat,30.3823,67.7282,46.45,41,4,3.56,PK,1613017404
Amot,59.5714,7.9877,7.0,83,3,4.85,NO,1613017404
Palm beach gardens,26.8234,-80.1386,73.99,83,40,5.75,US,1613017149
Puro,12.4841,123.3827,83.39,74,8,3.94,PH,1613017405
Berlevag,70.8578,29.0864,21.2,73,20,8.05,NO,1613017405
Santa vitoria do palmar,-33.5189,-53.3681,69.31,86,64,9.6,BR,1613017189
Tapes,-30.6733,-51.3958,72.95,84,80,14.0,BR,1613017405
Hayden,47.766,-116.7866,26.01,63,75,4.61,US,1613017405
Atlantic city,39.3643,-74.4229,34.0,69,90,3.44,US,1613017224
Myskhako,44.6714,37.7433,50.0,81,100,13.42,RU,1613017405
Verkh-usugli,52.7,115.1667,17.22,95,100,9.37,RU,1613017405
San quintin,30.4833,-115.95,55.83,80,1,11.18,MX,1613017406
Rudraprayag,30.2833,78.9833,66.61,23,0,2.3,IN,1613017406
Itarema,-2.9248,-39.9167,79.84,82,83,9.44,BR,1613017406
Waipawa,-41.4122,175.5153,66.2,55,4,26.46,NZ,1613017406
Vuktyl,63.8567,57.3094,-23.19,87,100,4.81,RU,1613017406
Malanje,-9.5402,16.341,64.04,96,100,5.37,AO,1613017406
Vilyuysk,63.7553,121.6247,-12.96,88,3,3.76,RU,1613017406
Astana,51.1801,71.446,-9.4,77,0,6.71,KZ,1613017361
Larsnes,62.2028,5.5773,24.01,54,0,18.41,NO,1613017406
Tirat karmel,32.7617,34.9719,56.34,77,0,2.06,IL,1613017406
Makurdi,7.7411,8.5121,76.77,21,23,6.44,NG,1613017406
Kusu,33.2831,131.1514,57.2,35,0,4.61,JP,1613017406
Kilis,36.7161,37.115,39.2,93,0,3.29,TR,1613017407
Kyra,49.5776,111.9753,21.65,93,100,16.51,RU,1613017407
Barra,-11.0894,-43.1417,74.07,78,38,2.82,BR,1613017407
Seoul,37.5683,126.9778,48.2,53,60,3.44,KR,1613017190
Kurilsk,45.2333,147.8833,22.46,92,99,14.0,RU,1613017407
Tiznit,29.5833,-9.5,53.69,82,0,0.94,MA,1613017407
Pandan,14.0453,124.1694,82.81,81,4,8.75,PH,1613017407
Obidos,-1.9175,-55.5181,74.89,90,100,2.73,BR,1613017226
Talcahuano,-36.7167,-73.1167,59.0,100,90,4.61,CL,1613017408
Churapcha,62.0025,132.4325,-0.44,91,100,6.69,RU,1613017408
Baghdad,33.3406,44.4009,48.2,93,0,1.14,IQ,1613017408
Berkakit,56.5807,124.7681,10.02,93,100,6.69,RU,1613017408
Kazerun,29.6195,51.6541,57.22,41,100,0.81,IR,1613017408
Norsup,-16.0667,167.3833,84.15,68,17,6.51,VU,1613017408
Bolhrad,45.6826,28.6149,41.0,93,40,4.61,UA,1613017408
Mehamn,71.0357,27.8492,21.2,73,20,8.05,NO,1613017408
Tarakan,3.3,117.6333,77.0,94,90,1.14,ID,1613017409
Sembakung,3.8167,117.25,77.0,94,90,1.14,ID,1613017409
Morant bay,17.8815,-76.4093,78.8,78,20,6.91,JM,1613017409
Carbonia,39.1672,8.5222,53.6,76,40,18.41,IT,1613017409
Blagoyevo,63.3667,47.9167,-14.24,89,19,3.71,RU,1613017409
Bilma,18.6853,12.9164,63.73,24,0,5.79,NE,1613017409
Kanina,-10.7341,25.4699,62.67,95,100,4.88,CD,1613017409
Palu,-0.8917,119.8707,89.94,56,90,3.29,ID,1613017366
Mount isa,-20.7333,139.5,96.8,36,40,9.22,AU,1613017409
La baule-escoublac,47.2922,-2.364,26.6,80,0,17.27,FR,1613017410
Mokhsogollokh,61.4681,128.9203,-5.3,90,96,4.0,RU,1613017410
Whitehorse,60.7161,-135.0538,-18.0,69,20,18.41,CA,1613017410
Ulaanbaatar,47.9077,106.8832,14.0,73,75,13.42,MN,1613017410
Zhigansk,66.7697,123.3711,-11.16,87,100,8.63,RU,1613017410
Enniscorthy,52.5008,-6.5578,35.01,75,98,8.99,IE,1613017410
Katherine,-14.4667,132.2667,89.6,66,40,4.61,AU,1613017410
Kutum,14.2,24.6667,57.69,51,0,10.67,SD,1613017410
Luanda,-8.8368,13.2343,78.8,83,40,3.44,AO,1613017410
Ichhawar,23.0167,77.0167,72.77,23,81,6.06,IN,1613017410
Santiago del estero,-27.7951,-64.2615,66.99,91,16,5.01,AR,1613017410
Redcar,54.6166,-1.06,35.01,71,79,6.76,GB,1613017410
Tamworth,52.634,-1.6959,25.0,93,20,1.99,GB,1613017411
Kariba,-16.5167,28.8,70.9,92,100,1.1,ZW,1613017411
Macheng,31.1783,115.0319,63.12,39,17,3.58,CN,1613017411
Santa maria,-29.6842,-53.8069,68.0,88,40,6.91,BR,1613017402
Gari,59.4307,62.3497,-21.55,86,15,2.35,RU,1613017411
Batagay-alyta,67.8006,130.4114,-1.46,89,62,0.47,RU,1613017411
Port blair,11.6667,92.75,81.41,54,99,10.07,IN,1613017411
Beloha,-25.1667,45.05,71.49,86,100,6.31,MG,1613017411
Krasnoselkup,65.7,82.4667,-23.67,86,97,4.7,RU,1613017412
Misratah,32.3754,15.0925,64.27,38,0,17.34,LY,1613017412
Trebinje,42.7119,18.3442,51.8,93,40,3.44,BA,1613017201
Rio brilhante,-21.8019,-54.5464,68.68,89,99,4.65,BR,1613017412
Mosquera,4.7059,-74.2302,55.4,88,40,9.22,CO,1613017412
Ixtapa,20.7,-105.2,69.8,78,90,0.65,MX,1613017266
Wagar,16.1525,36.2032,65.26,90,5,7.16,SD,1613017412
Yatou,37.15,122.3833,49.35,53,29,12.68,CN,1613017412
Talaya,61.3833,152.75,0.93,90,95,2.82,RU,1613017413
Maroantsetra,-15.4333,49.7333,75.42,86,100,1.41,MG,1613017413
Nyandoma,61.669,40.1991,-9.42,90,100,3.78,RU,1613017413
Grosseto,42.8333,11.25,41.0,93,0,3.44,IT,1613017413
Ouallam,14.3188,2.0866,71.87,18,0,9.86,NE,1613017413
Phalaborwa,-23.943,31.1411,69.71,89,10,6.6,ZA,1613017414
Pangnirtung,66.1451,-65.7125,4.53,71,28,2.66,CA,1613017414
Port-gentil,-0.7193,8.7815,81.9,79,100,6.31,GA,1613017414
Vanersborg,58.3807,12.3234,19.4,79,75,13.8,SE,1613017414
Teacapan,22.55,-105.75,63.34,80,0,3.11,MX,1613017414
Leshukonskoye,64.8989,45.7622,-8.68,90,88,4.94,RU,1613017414
Caririacu,-7.0422,-39.2836,80.6,74,75,4.61,BR,1613017414
Bria,6.5423,21.9863,62.46,30,81,3.56,CF,1613017414
Keskin,39.6731,33.6136,37.44,81,0,4.56,TR,1613017414
Quatre cocos,-20.2078,57.7625,82.0,68,92,8.99,MU,1613017415
San cristobal,7.7669,-72.225,64.71,88,16,2.24,VE,1613017415
Tazovskiy,67.4667,78.7,-29.34,85,100,5.5,RU,1613017415
Torrelavega,43.3494,-4.0479,50.0,88,75,5.12,ES,1613017415
Tarata,-17.6167,-66.0167,57.2,100,75,3.44,BO,1613017415
Vilhena,-12.7406,-60.1458,69.39,99,100,2.51,BR,1613017415
Haifa,32.8156,34.9892,56.41,77,0,1.66,IL,1613017211
Muana,-1.5283,-49.2167,75.0,94,100,3.96,BR,1613017415
Alizai,33.5383,70.3462,61.25,27,0,2.28,PK,1613017415
Lamar,33.6668,-95.5836,28.99,93,90,13.8,US,1613017416
Flin flon,54.7682,-101.865,-30.23,84,90,5.1,CA,1613017416
Popondetta,-8.7537,148.2534,90.27,56,100,6.91,PG,1613017416
Viedma,-40.8135,-62.9967,64.99,83,20,1.01,AR,1613017416
Kampot,10.6167,104.1833,78.8,78,75,12.66,KH,1613017416
Muros,42.7762,-9.0603,59.0,94,100,8.99,ES,1613017416
Tadine,-21.55,167.8833,81.16,68,35,6.35,NC,1613017416
Mecca,21.4267,39.8261,71.71,53,0,2.93,SA,1613017416
Saposoa,-6.934,-76.7716,73.29,91,100,2.13,PE,1613017417
Bhalki,18.0333,77.2167,77.9,22,50,6.58,IN,1613017417
Miles city,46.4083,-105.8406,-7.6,59,90,10.36,US,1613017417
Meulaboh,4.1363,96.1285,86.09,67,94,1.72,ID,1613017417
Padang,-0.9492,100.3543,86.0,66,20,2.3,ID,1613017417
Oneonta,42.4529,-75.0638,19.0,72,100,0.78,US,1613017207
Huarmey,-10.0681,-78.1522,72.63,73,97,5.08,PE,1613017417
Vytegra,61.0064,36.4481,-5.04,90,100,3.65,RU,1613017149
Sotouboua,8.5667,0.9833,69.8,43,0,2.75,TG,1613017417
Makinsk,52.6292,70.4169,-13.97,87,80,3.89,KZ,1613017417
Turinskaya sloboda,57.6232,64.3858,-19.89,87,6,3.83,RU,1613017417
Khandyga,62.6667,135.6,6.4,91,100,1.52,RU,1613017417
Puerto lempira,15.2667,-83.7667,73.76,90,3,5.32,HN,1613017418
Timizart,36.8,4.2667,50.7,89,57,5.82,DZ,1613017418
Kincardine,56.0667,-3.7167,19.0,92,40,1.14,GB,1613017418
Cockburn town,21.4612,-71.1419,76.78,77,0,18.48,TC,1613017418
Fairbanks,64.8378,-147.7164,3.0,84,1,0.96,US,1613017411
Weligama,5.9667,80.4167,79.12,70,76,5.23,LK,1613017418
Sola,-13.8833,167.55,89.6,74,75,5.75,VU,1613017418
Antalaha,-14.9003,50.2788,75.4,89,100,5.21,MG,1613017418
Zaragoza,41.6561,-0.8773,42.01,87,20,3.44,ES,1613017199
Yumen,40.2833,97.2,35.85,67,65,12.24,CN,1613017419
Barvinkove,48.9097,37.0205,31.28,98,100,5.84,UA,1613017419
Lodwar,3.1191,35.5973,79.29,43,89,6.51,KE,1613017419
Miramar,25.9873,-80.2323,75.2,78,1,5.75,US,1613017342
Oistins,13.0667,-59.5333,76.62,78,1,19.15,BB,1613017162
Biak,-0.9131,122.8766,83.77,70,100,1.95,ID,1613017419
Saint anthony,45.0205,-93.218,-2.2,59,1,10.36,US,1613017419
Sabha,27.0377,14.4283,57.6,33,0,9.71,LY,1613017419
Byron bay,-28.65,153.6167,78.01,61,40,11.5,AU,1613017203
Moranbah,-22.0016,148.0466,85.82,51,87,11.99,AU,1613017420
Camacha,33.0833,-16.3333,60.8,100,40,4.61,PT,1613017420
Roxana,10.2753,-83.7513,64.99,60,61,3.0,CR,1613017420
Las vegas,36.175,-115.1372,60.8,31,1,5.75,US,1613017326
Pochutla,15.7432,-96.4661,75.99,81,0,4.0,MX,1613017420
Aripuana,-9.1667,-60.6333,72.34,99,100,1.39,BR,1613017420
Ruidoso,33.3317,-105.673,44.6,23,75,11.5,US,1613017420
Henties bay,-22.116,14.2845,68.0,91,91,7.14,NA,1613017421
Kununurra,-15.7667,128.7333,91.4,62,75,11.5,AU,1613017421
Coihaique,-45.5752,-72.0662,68.0,52,0,3.44,CL,1613017421
Port keats,-14.25,129.55,87.84,67,75,9.53,AU,1613017421
Barabai,-2.5833,115.3833,93.29,52,72,2.77,ID,1613017421
Yerbogachen,61.2767,108.0108,-7.01,88,17,4.14,RU,1613017422
Winslow,35.0242,-110.6974,35.6,41,1,4.61,US,1613017422
Umarkot,25.3616,69.7362,75.33,17,54,7.05,PK,1613017422
Buluang,13.3068,123.3425,82.8,77,8,6.71,PH,1613017422
Sumbe,-11.2061,13.8437,74.53,81,100,5.01,AO,1613017422
Buala,-8.145,159.5921,81.16,83,100,11.54,SB,1613017422
Homer,59.6425,-151.5483,35.01,75,90,4.61,US,1613017423
Bardiyah,31.7561,25.0865,60.26,40,0,11.5,LY,1613017423
Ariguani,10.25,-74.0,79.0,78,41,1.99,CO,1613017423
Opuwo,-18.0607,13.84,65.93,78,98,3.67,NA,1613017423
Pangai,-19.8,-174.35,78.8,94,75,3.87,TO,1613017423
Kalanguy,51.0167,116.5167,18.01,94,100,1.83,RU,1613017423
Sambava,-14.2667,50.1667,76.21,88,100,5.19,MG,1613017423
Vostok,46.4856,135.8833,19.53,91,3,3.51,RU,1613017423
San patricio,28.017,-97.5169,57.2,94,90,16.11,US,1613017296
Killybegs,54.6333,-8.45,30.0,78,90,11.99,IE,1613017424
Nelson bay,-32.7167,152.15,84.99,41,20,8.05,AU,1613017371
Kodinsk,58.6881,99.1844,-1.16,88,100,3.65,RU,1613017424
Marawi,7.9986,124.2928,82.99,85,94,8.01,PH,1613017424
Ihosy,-22.4,46.1167,64.96,90,100,5.64,MG,1613017424
Mandurah,-32.55,115.7,75.0,40,0,4.61,AU,1613017424
Alice springs,-23.7,133.8833,96.8,34,40,14.97,AU,1613017424
Guasave,25.5667,-108.45,55.99,91,0,1.01,MX,1613017424
Manta,-0.95,-80.7333,77.0,88,0,3.44,EC,1613017425
Xacmaz,41.4635,48.806,45.86,84,68,9.69,AZ,1613017425
Les cayes,18.2,-73.75,74.57,80,3,4.61,HT,1613017425
Ahuimanu,21.4447,-157.8378,75.2,56,75,6.91,US,1613017425
Karasburg,-28.0167,18.75,74.03,52,89,4.59,NA,1613017425
Santa clara,22.4,-79.9667,73.4,94,40,8.05,CU,1613017299
Obihiro,42.9172,143.2044,30.2,51,20,13.8,JP,1613017425
Lavrentiya,65.5833,-171.0,-27.42,79,0,9.62,RU,1613017426
La possession,-20.9289,55.3351,78.8,83,75,12.66,RE,1613017426
Chapais,49.7834,-74.8492,-11.2,77,90,1.36,CA,1613017426
Mayskiy,47.6931,40.1025,41.0,100,90,13.42,RU,1613017426
Onega,63.9061,38.1404,-6.21,89,100,4.29,RU,1613017426
Xining,36.6167,101.7667,40.17,55,5,4.07,CN,1613017426
Gorele,41.0308,39.0031,51.8,71,0,7.49,TR,1613017426
Narsaq,60.9167,-46.05,33.8,27,75,32.21,GL,1613017426
Yanliang,34.6592,109.2292,50.0,50,66,6.71,CN,1613017426
Tame,6.461,-71.73,78.44,55,85,4.88,CO,1613017426
Mwene-ditu,-7.0,23.45,65.25,96,99,1.97,CD,1613017426
Udachnyy,66.4167,112.4,-18.69,84,41,3.71,RU,1613017427
Kaoma,-14.7833,24.8,64.58,97,100,3.98,ZM,1613017427
