City,Latitude,Longitude,Max Temp (F),Humidity (%),Cloudiness (%),Wind Speed (mph),Country,Date
jamestown,42.097,-79.2353,33.8,47,1,6.91,US,1612481333
airai,-8.9266,125.4092,62.98,100,100,3.83,TL,1612481396
verkh-chebula,56.0308,87.6218,5.22,94,98,8.61,RU,1612481484
sarangani,5.4033,125.4636,81.84,78,77,19.1,PH,1612481418
hobart,-42.8794,147.3294,71.6,78,75,5.75,AU,1612481310
arys,42.4252,68.795,35.6,75,0,8.95,KZ,1612481485
mataura,-46.1927,168.8643,68.94,47,51,3.42,NZ,1612481406
tuktoyaktuk,69.4541,-133.0374,-34.6,74,75,12.66,CA,1612481409
moses lake,47.1301,-119.2781,51.8,43,1,10.36,US,1612481485
rikitea,-23.1203,-134.9692,78.85,68,97,10.94,PF,1612481114
pundaguitan,6.3711,126.1689,80.89,78,66,10.31,PH,1612481485
bijie,27.3125,105.2942,40.41,81,100,4.7,CN,1612481485
busselton,-33.65,115.3333,55.99,82,0,16.37,AU,1612481411
sambava,-14.2667,50.1667,75.76,90,64,6.51,MG,1612481485
hilo,19.7297,-155.09,73.4,73,75,19.57,US,1612481485
ushuaia,-54.8,-68.3,51.8,71,20,36.82,AR,1612481410
mount gambier,-37.8333,140.7667,53.6,94,75,13.8,AU,1612481415
new norfolk,-42.7826,147.0587,73.99,64,78,1.01,AU,1612481415
beysehir,37.6773,31.7246,42.17,66,0,2.1,TR,1612481486
kahului,20.8947,-156.47,73.4,60,75,11.5,US,1612481458
cidreira,-30.1811,-50.2056,69.22,71,45,15.93,BR,1612481436
kurumkan,54.3,110.3,-1.44,83,99,2.59,RU,1612481486
alice springs,-23.7,133.8833,71.6,68,75,12.66,AU,1612481459
thompson,55.7435,-97.8558,-7.6,77,90,9.22,CA,1612481406
vaini,-21.2,-175.2,80.6,94,75,6.91,TO,1612481407
hermanus,-34.4187,19.2345,66.0,86,30,1.01,ZA,1612481156
saint-pierre,-21.3393,55.4781,80.6,69,75,4.61,RE,1612481457
hithadhoo,-0.6,73.0833,82.33,76,100,9.86,MV,1612481410
arraial do cabo,-22.9661,-42.0278,80.6,78,0,13.8,BR,1612481414
seoul,37.5683,126.9778,26.6,68,0,5.75,KR,1612481247
okhotsk,59.3833,143.3,1.42,86,99,12.37,RU,1612481431
nikolskoye,59.7035,30.7861,9.0,85,90,8.95,RU,1612481406
nizhneangarsk,55.7833,109.55,0.97,87,100,2.28,RU,1612481487
ribeira grande,38.5167,-28.7,55.65,71,32,21.0,PT,1612481411
saint-philippe,-21.3585,55.7679,80.6,69,75,4.61,RE,1612481403
sioux lookout,50.1001,-91.917,12.2,79,90,11.5,CA,1612481487
constitucion,-35.3333,-72.4167,60.75,91,34,3.78,CL,1612481459
tura,25.5198,90.2201,59.07,58,0,3.53,IN,1612481487
rio gallegos,-51.6226,-69.2181,69.8,28,0,27.63,AR,1612481446
nosy varika,-20.5833,48.5333,76.5,88,60,3.27,MG,1612481487
saskylakh,71.9167,114.0833,-40.92,75,0,3.18,RU,1612480764
te anau,-45.4167,167.7167,70.34,52,84,1.12,NZ,1612481449
punta arenas,-53.15,-70.9167,55.4,47,0,26.46,CL,1612481411
umm kaddadah,13.6017,26.6876,64.09,28,37,17.18,SD,1612481488
acapulco,16.8634,-99.8901,84.2,70,1,5.75,MX,1612481440
ambilobe,-13.2,49.05,74.05,93,71,1.95,MG,1612481488
katsuura,35.1333,140.3,43.0,49,20,18.41,JP,1612481399
port alfred,-33.5906,26.891,66.0,87,16,9.53,ZA,1612481394
qaanaaq,77.484,-69.3632,-20.85,61,57,8.63,GL,1612481391
sungai padi,6.0851,101.8766,73.99,78,100,2.37,TH,1612481488
qasigiannguit,68.8193,-51.1922,-0.4,35,3,14.97,GL,1612481488
belaya gora,68.5333,146.4167,-17.19,87,60,11.01,RU,1612481452
meulaboh,4.1363,96.1285,75.27,86,45,4.81,ID,1612481425
cape town,-33.9258,18.4232,68.0,77,0,9.22,ZA,1612481407
isangel,-19.55,169.2667,86.0,74,75,3.44,VU,1612481489
georgetown,5.4112,100.3354,77.0,83,20,7.52,MY,1612481382
lebu,-37.6167,-73.65,63.23,74,0,2.19,CL,1612481413
kapaa,22.0752,-159.319,71.6,56,75,9.22,US,1612481414
xingcheng,40.6167,120.7167,30.42,77,0,7.96,CN,1612481489
hambantota,6.1241,81.1185,75.15,77,89,16.51,LK,1612481429
padang,-0.9492,100.3543,75.2,94,20,3.44,ID,1612481489
mahebourg,-20.4081,57.7,78.8,73,40,11.5,MU,1612481412
methoni,36.8197,21.7049,54.0,93,0,5.75,GR,1612481423
rocha,-34.4833,-54.3333,66.33,76,100,17.2,UY,1612481489
sundargarh,22.1167,84.0333,54.7,40,5,3.65,IN,1612481489
tual,-5.6667,132.75,82.6,80,100,27.94,ID,1612481489
inirida,3.8653,-67.9239,77.92,83,68,1.79,CO,1612481489
port lincoln,-34.7333,135.8667,62.83,70,57,22.84,AU,1612481429
bathsheba,13.2167,-59.5167,78.8,61,20,19.57,BB,1612481467
albany,42.6001,-73.9662,33.8,55,20,4.61,US,1612480995
lasa,46.6166,10.7002,39.0,86,0,3.58,IT,1612481490
vila,42.0304,-8.1588,42.01,92,100,3.0,PT,1612481490
shingu,33.7333,135.9833,41.0,56,40,8.05,JP,1612481409
guerrero negro,27.9769,-114.0611,63.36,61,100,19.46,MX,1612481461
shu,43.5983,73.7614,27.0,75,82,5.5,KZ,1612481490
provideniya,64.3833,-173.3,-6.38,88,100,26.87,RU,1612481414
kidal,18.4411,1.4078,68.61,21,99,11.36,ML,1612481428
brigantine,39.4101,-74.3646,37.4,52,1,4.61,US,1612481490
bubaque,11.2833,-15.8333,77.59,67,27,14.74,GW,1612481413
atuona,-9.8,-139.0333,78.58,71,25,10.98,PF,1612481398
clonakilty,51.6231,-8.8706,42.8,87,75,12.66,IE,1612481491
shihezi,44.3,86.0333,16.21,97,100,0.58,CN,1612481449
sinop,41.7711,34.8709,45.95,82,44,4.45,TR,1612481491
vardo,70.3705,31.1107,23.0,93,90,17.27,NO,1612481460
geraldton,-28.7667,114.6,71.6,35,90,20.71,AU,1612481401
bluff,-46.6,168.3333,57.72,65,58,7.47,NZ,1612481416
urumqi,43.801,87.6005,12.2,92,79,6.71,CN,1612481488
okha,53.5739,142.9478,-11.15,88,100,22.46,RU,1612481491
barrow,71.2906,-156.7887,-25.6,83,1,6.91,US,1612481304
dongli,23.5656,116.8194,53.6,94,0,2.24,CN,1612481491
chiang klang,19.2938,100.8617,57.2,100,0,2.3,TH,1612481491
black river,18.0264,-77.8487,77.0,78,75,14.97,JM,1612481491
porto belo,-27.1578,-48.5531,78.8,78,20,6.91,BR,1612481472
laizhou,37.1717,119.9214,37.02,72,100,13.06,CN,1612481492
severo-yeniseyskiy,60.3725,93.0408,-3.51,93,96,5.5,RU,1612481492
yulara,-25.2406,130.9889,68.0,60,90,11.5,AU,1612481414
lahad datu,5.0268,118.327,75.96,91,99,6.71,MY,1612481492
hasaki,35.7333,140.8333,37.4,56,20,6.91,JP,1612481460
longyearbyen,78.2186,15.6401,17.6,67,75,13.8,SJ,1612481422
narsaq,60.9167,-46.05,15.8,53,88,6.26,GL,1612481426
aklavik,68.2191,-135.0107,-41.8,66,75,2.3,CA,1612481452
kavaratti,10.5669,72.642,80.76,76,61,10.67,IN,1612481492
carnarvon,-24.8667,113.6333,79.23,79,100,23.49,AU,1612481406
port hedland,-20.3167,118.5667,83.66,75,43,10.27,AU,1612481443
matara,5.9485,80.5353,72.64,88,77,5.84,LK,1612481493
komsomolskiy,40.4272,71.7189,32.0,64,4,6.91,UZ,1612481402
buzmeyin,38.0507,58.2056,42.8,56,63,2.3,TM,1612481493
saint george,37.1041,-113.5841,55.99,24,1,8.05,US,1612481363
cherskiy,68.75,161.3,-11.4,74,2,10.6,RU,1612481466
jinchang,38.4953,102.1739,30.06,63,0,8.55,CN,1612481471
east london,-33.0153,27.9116,73.04,74,91,7.18,ZA,1612481203
sarab,38.6066,44.9883,36.09,81,99,1.48,IR,1612481493
esperance,-33.8667,121.9,59.0,67,40,4.61,AU,1612481431
nuuk,64.1835,-51.7216,12.2,62,40,25.32,GL,1612481494
kruisfontein,-34.0033,24.7314,64.99,93,0,2.71,ZA,1612481450
berbera,10.4396,45.0143,71.31,63,0,3.6,SO,1612481494
nam phong,16.7023,102.8557,64.4,82,1,3.44,TH,1612481494
praia,14.9215,-23.5087,69.8,73,75,16.11,CV,1612481494
preobrazheniye,42.9019,133.9064,11.05,80,6,5.1,RU,1612481494
olga,43.7444,135.2892,1.02,78,0,5.23,RU,1612481494
broome,42.2506,-75.833,33.8,55,1,3.44,US,1612481457
port elizabeth,-33.918,25.5701,66.2,88,0,2.3,ZA,1612481416
puerto ayora,-0.7393,-90.3518,86.0,62,0,12.66,EC,1612481394
wangjing,24.6,94.0333,47.8,80,0,0.22,IN,1612481495
mirnyy,62.5353,113.9611,-31.14,84,100,4.25,RU,1612481495
karratha,-20.7377,116.8463,82.54,76,33,12.5,AU,1612481417
jacksonville,30.3322,-81.6556,60.8,39,75,4.61,US,1612481011
ponta do sol,32.6667,-17.1,50.0,65,94,4.0,PT,1612481421
itabira,-19.6192,-43.2269,68.09,93,93,2.48,BR,1612481495
zyryanka,65.75,150.85,-11.04,89,100,20.4,RU,1612481495
barra patuca,15.8,-84.2833,72.68,68,51,6.29,HN,1612481495
nome,64.5011,-165.4064,6.01,72,90,16.11,US,1612481441
banda aceh,5.5577,95.3222,76.86,79,46,12.64,ID,1612481307
bambous virieux,-20.3428,57.7575,79.0,73,40,11.5,MU,1612481457
palmas,-10.2128,-48.3603,78.8,94,0,3.44,BR,1612481496
phek,25.6667,94.5,37.72,100,1,1.86,IN,1612481496
kailua,21.4022,-157.7394,71.6,60,75,13.8,US,1612481496
bollnas,61.3482,16.3946,6.01,87,48,1.99,SE,1612481496
mikhaylov,54.2292,39.0186,26.42,98,100,17.11,RU,1612481496
coihaique,-45.5752,-72.0662,82.4,30,0,4.61,CL,1612481443
barcs,45.96,17.4586,48.09,92,92,3.18,HU,1612481496
klaksvik,62.2266,-6.589,33.8,64,20,19.57,FO,1612481399
zhigansk,66.7697,123.3711,-43.01,75,0,12.21,RU,1612481496
victoria,22.2855,114.1577,64.0,79,25,1.01,HK,1612481291
bredasdorp,-34.5322,20.0403,68.0,77,76,6.91,ZA,1612481410
podgorenskiy,50.405,39.6429,40.8,96,100,10.45,RU,1612481497
kaeo,-35.1,173.7833,71.38,61,61,6.17,NZ,1612481463
luderitz,-26.6481,15.1594,67.78,60,0,19.13,NA,1612481426
pitelino,54.5777,41.8145,33.96,99,100,6.22,RU,1612481497
dingle,10.9995,122.6711,78.06,86,66,11.3,PH,1612481461
weligama,5.9667,80.4167,73.02,89,80,4.45,LK,1612481497
kristiinankaupunki,62.2743,21.376,12.99,93,6,9.51,FI,1612481497
khatanga,71.9667,102.5,-30.89,78,0,8.72,RU,1612481396
mar del plata,-38.0023,-57.5575,64.99,77,40,10.36,AR,1612481110
harbin,45.75,126.65,3.2,78,0,8.95,CN,1612481497
alugan,12.2188,125.4808,81.28,84,87,15.05,PH,1612481441
manisa,38.8333,28.1667,45.5,78,0,2.66,TR,1612481498
sumbe,-11.2061,13.8437,75.54,87,15,6.51,AO,1612481498
nanortalik,60.1432,-45.2371,21.15,79,96,7.74,GL,1612481391
coahuayana,18.7333,-103.6833,80.6,69,1,4.52,MX,1612481460
moba,33.2288,105.0179,29.73,82,36,4.47,CN,1612481461
cayenne,4.9333,-52.3333,80.6,74,90,10.36,GF,1612481407
chokurdakh,70.6333,147.9167,-13.02,87,49,20.04,RU,1612481420
upernavik,72.7868,-56.1549,-8.16,69,33,4.54,GL,1612481391
brainerd,46.358,-94.2008,12.2,62,40,12.66,US,1612481334
san patricio,28.017,-97.5169,87.8,61,20,16.11,US,1612481409
shushtar,32.0455,48.8567,66.16,32,100,6.35,IR,1612481498
bengkulu,-3.8004,102.2655,75.33,84,75,4.43,ID,1612481435
solhan,38.9634,41.0293,30.63,91,70,2.44,TR,1612481498
yate,51.5407,-2.4184,46.0,95,90,1.99,GB,1612481499
jayanca,-6.3908,-79.8219,75.2,69,0,17.27,PE,1612481499
orange,33.7,-117.7675,66.0,59,20,4.61,US,1612481268
erenhot,43.6475,111.9767,19.06,92,63,11.32,CN,1612481499
tiksi,71.6872,128.8694,-21.78,88,100,7.36,RU,1612481420
roald,62.5833,6.1333,23.0,50,20,5.75,NO,1612481499
sao filipe,14.8961,-24.4956,71.51,78,91,12.17,CV,1612481434
atar,20.5169,-13.0499,65.44,28,84,6.35,MR,1612481499
sosnovka,56.255,51.2842,33.64,97,100,8.41,RU,1612481499
kodiak,57.79,-152.4072,32.65,90,0,2.8,US,1612481422
hamden,41.3959,-72.8968,37.4,64,1,4.34,US,1612481281
katherine,-14.4667,132.2667,77.0,88,90,9.22,AU,1612481499
alenquer,-1.9417,-54.7383,82.4,89,0,3.44,BR,1612481499
santa rosa,14.3122,121.1114,79.0,73,75,1.14,PH,1612481500
asau,46.4333,26.4,37.4,93,0,8.05,RO,1612481468
lashio,22.9333,97.75,47.41,65,0,1.45,MM,1612481460
college,64.8569,-147.8028,-13.0,76,20,5.75,US,1612481500
lompoc,34.6391,-120.4579,62.6,51,1,16.11,US,1612481463
san quintin,30.4833,-115.95,60.57,66,62,18.99,MX,1612481500
vila velha,-20.3297,-40.2925,79.0,83,0,16.11,BR,1612481488
vallenar,-28.5708,-70.7581,69.04,54,64,2.89,CL,1612481500
vanavara,60.34,102.2797,-13.25,89,99,3.33,RU,1612481428
vitim,59.4511,112.5578,-12.26,88,100,1.05,RU,1612481500
namibe,-15.1961,12.1522,71.58,70,0,7.0,AO,1612481500
barra,-11.0894,-43.1417,79.81,66,70,6.2,BR,1612481500
kananga,-5.8958,22.4178,70.2,90,69,2.95,CD,1612481489
pisco,-13.7,-76.2167,75.2,69,0,19.57,PE,1612481401
fortuna,40.5982,-124.1573,55.0,71,1,11.5,US,1612481412
tasiilaq,65.6145,-37.6368,26.6,80,75,17.27,GL,1612481427
kutum,14.2,24.6667,53.96,39,4,13.33,SD,1612481501
lagoa,39.05,-27.9833,54.86,73,25,21.52,PT,1612481458
mandalgovi,45.7625,106.2708,15.85,85,62,8.9,MN,1612481501
petrovsk-zabaykalskiy,51.273,108.843,7.66,93,84,3.51,RU,1612481501
kysyl-syr,63.8986,122.7617,-41.71,76,9,3.98,RU,1612481501
peniche,39.3558,-9.3811,52.0,88,95,7.67,PT,1612481501
buesaco,1.3902,-77.1598,61.21,84,94,2.3,CO,1612481501
muros,42.7762,-9.0603,51.01,94,94,1.01,ES,1612481502
monforte de lemos,42.5216,-7.5142,39.99,91,99,0.92,ES,1612481502
sabang,5.8933,95.3214,81.23,77,39,21.63,ID,1612481443
torbay,47.6666,-52.7314,42.01,100,90,2.3,CA,1612481401
laguna,38.421,-121.4238,60.8,39,1,9.22,US,1612481502
dilla,6.41,38.31,60.58,32,0,3.24,ET,1612481502
certaldo,43.547,11.0402,52.0,89,99,3.27,IT,1612481502
marabba,12.35,32.1833,70.45,22,0,19.01,SD,1612481502
pombos,-8.1414,-35.3958,78.8,69,40,6.91,BR,1612481502
sweetwater,25.7634,-80.3731,69.8,60,75,9.22,US,1612481502
danane,7.2596,-8.155,74.25,84,82,1.81,CI,1612481502
dikson,73.5069,80.5464,-4.49,91,100,15.17,RU,1612481427
bela,25.9333,81.9833,56.62,67,63,7.2,IN,1612481503
beloha,-25.1667,45.05,78.31,77,66,4.07,MG,1612481503
gizo,-8.103,156.8419,85.53,67,47,9.98,SB,1612481465
cabo san lucas,22.8909,-109.9124,86.0,30,20,8.05,MX,1612481435
gualaceo,-2.9,-78.7833,59.0,88,90,8.05,EC,1612481503
souillac,-20.5167,57.5167,78.8,73,40,11.5,MU,1612481423
luena,-11.7833,19.9167,61.38,95,10,2.55,AO,1612481420
saint-augustin,51.226,-58.6502,34.57,97,100,8.23,CA,1612481425
pontalina,-17.525,-49.4472,73.98,82,81,2.75,BR,1612481503
oranjestad,12.524,-70.027,80.6,83,20,19.57,AW,1612481386
aksu,41.1231,80.2644,21.34,87,10,1.9,CN,1612481503
payo,-3.7508,103.6372,73.08,95,99,2.66,ID,1612481504
viedma,-40.8135,-62.9967,82.99,33,0,1.01,AR,1612481504
shakawe,-18.3667,21.85,69.24,90,98,3.89,BW,1612481504
plouzane,48.3833,-4.6167,46.4,93,75,3.44,FR,1612481504
kupang,-10.1667,123.5833,78.8,100,40,4.61,ID,1612481504
faanui,-16.4833,-151.75,81.19,69,15,7.18,PF,1612481425
olinda,-8.0089,-34.8553,78.8,69,40,6.91,BR,1612481504
orebro,59.2741,15.2066,14.0,84,0,4.61,SE,1612481504
bethel,41.3712,-73.414,33.8,69,1,2.66,US,1612481397
sorong,-0.8833,131.25,83.25,70,100,5.41,ID,1612481504
palmer,42.1584,-72.3287,33.01,59,20,3.44,US,1612481504
aripuana,-9.1667,-60.6333,76.17,94,72,0.87,BR,1612481448
ishigaki,24.3448,124.1572,68.0,64,40,12.66,JP,1612481505
moen,69.1304,18.6123,15.8,92,75,2.3,NO,1612481505
castro,-24.7911,-50.0119,68.4,94,58,6.31,BR,1612481392
teeli,51.0333,90.2333,11.73,91,98,1.74,RU,1612481505
scarborough,54.2797,-0.4044,42.01,95,100,4.0,GB,1612481316
mukilteo,47.9445,-122.3046,44.01,87,90,10.36,US,1612481505
kesinga,20.2,83.2333,53.02,42,47,1.36,IN,1612481505
nantucket,41.2835,-70.0995,33.8,80,90,4.61,US,1612481223
buin,-33.7333,-70.75,82.4,42,0,5.75,CL,1612481506
richards bay,-28.783,32.0377,74.71,91,100,8.61,ZA,1612481506
severo-kurilsk,50.6789,156.125,10.58,88,77,10.29,RU,1612481002
iqaluit,63.7506,-68.5145,12.2,85,90,12.66,CA,1612481429
tezu,27.9167,96.1667,59.49,32,5,4.09,IN,1612481453
chuy,-33.6971,-53.4616,64.98,84,62,13.02,UY,1612481419
sur,22.5667,59.5289,65.43,70,0,4.99,OM,1612481506
surgut,61.25,73.4167,-4.0,92,90,1.59,RU,1612481506
buchanan,5.8808,-10.0467,78.8,94,20,8.1,LR,1612481506
kaitangata,-46.2817,169.8464,57.99,67,29,14.0,NZ,1612481400
caravelas,-17.7125,-39.2481,77.59,81,2,7.2,BR,1612481424
kamenka,51.3223,42.7678,39.0,98,100,14.47,RU,1612481461
kostomuksha,64.571,30.5767,4.35,93,100,12.06,RU,1612481507
atambua,-9.1061,124.8925,76.32,88,100,5.41,ID,1612481507
lilongwe,-13.9669,33.7873,68.13,83,35,1.36,MW,1612481507
ciudad bolivar,8.1222,-63.5497,82.85,61,63,14.92,VE,1612481467
karagay,58.2667,54.9368,25.0,98,100,6.67,RU,1612481507
nishihara,26.1842,127.7558,60.8,62,40,7.29,JP,1612481507
mount isa,-20.7333,139.5,87.8,51,100,17.27,AU,1612481455
timoteo,-19.5825,-42.6444,73.45,80,24,2.1,BR,1612481478
kuryk,43.2,51.65,46.2,84,85,15.17,KZ,1612481507
madimba,-10.4,40.3333,78.75,83,9,4.92,TZ,1612481507
jiaozuo,35.2397,113.2331,45.63,45,97,8.21,CN,1612481508
kungurtug,50.5994,97.5228,12.61,91,100,3.78,RU,1612481508
ejea de los caballeros,42.1263,-1.1372,55.0,82,100,14.97,ES,1612481508
touros,-5.1989,-35.4608,80.6,69,0,11.5,BR,1612481443
half moon bay,37.4636,-122.4286,62.6,58,1,12.66,US,1612481445
ixtapa,20.7,-105.2,73.4,78,1,10.36,MX,1612481446
yellowknife,62.456,-114.3525,-24.0,68,20,10.36,CA,1612481420
roma,43.2128,-75.4557,28.4,69,1,0.87,US,1612481434
butiama,-1.7667,33.9667,68.0,88,40,3.33,TZ,1612481509
mmathubudukwane,-24.6,26.4333,69.8,100,75,4.61,BW,1612481509
vilya,55.2456,42.2089,30.36,99,100,6.13,RU,1612481509
fairbanks,64.8378,-147.7164,-13.0,76,20,3.44,US,1612481403
magadan,59.5667,150.8,-4.45,82,24,17.0,RU,1612481509
along,28.1667,94.7667,53.42,59,22,1.45,IN,1612481509
xifeng,42.7372,124.7222,18.99,91,0,8.97,CN,1612481509
gazanjyk,39.2446,55.5154,49.66,48,100,2.53,TM,1612481509
areia branca,-4.9561,-37.1369,81.1,73,36,21.47,BR,1612481453
butaritari,3.0707,172.7902,79.63,86,100,13.51,KI,1612481424
port blair,11.6667,92.75,77.54,82,0,7.96,IN,1612481395
muli,2.9167,73.5667,81.43,76,97,16.51,MV,1612481457
inhambane,-23.865,35.3833,80.53,84,3,2.73,MZ,1612481510
juneau,58.3019,-134.4197,30.2,80,75,9.22,US,1612481510
kazachinskoye,57.6953,93.2761,6.22,94,93,5.55,RU,1612481510
kurchum,48.5722,83.6542,19.71,96,100,2.8,KZ,1612481510
carnot,4.9409,15.8665,72.61,21,0,3.89,CF,1612481510
adrar,20.5022,-10.0711,71.02,19,26,9.75,MR,1612481510
pitimbu,-7.4706,-34.8086,78.8,83,0,6.91,BR,1612481510
dunedin,-45.8742,170.5036,55.99,69,37,21.99,NZ,1612481469
qaqortoq,60.7167,-46.0333,15.8,53,100,5.99,GL,1612481453
bilma,18.6853,12.9164,60.49,32,0,5.82,NE,1612481469
mishkino,55.3389,63.9175,32.7,98,100,7.7,RU,1612481510
sitka,57.0531,-135.33,39.2,93,75,4.61,US,1612481420
hays,30.0502,-98.0336,70.0,47,23,7.0,US,1612481468
norman wells,65.282,-126.8329,-38.2,67,20,2.3,CA,1612481465
newport news,36.9788,-76.428,46.99,33,75,4.61,US,1612481511
port hardy,50.6996,-127.4199,42.8,100,90,4.61,CA,1612481410
mogadishu,2.0371,45.3438,77.05,84,19,18.9,SO,1612481392
brae,60.3964,-1.353,35.6,55,40,13.8,GB,1612481469
coquimbo,-29.9533,-71.3436,60.8,82,75,9.22,CL,1612481511
avarua,-21.2078,-159.775,84.2,70,95,6.91,CK,1612481414
erbaa,40.6689,36.5675,46.4,81,40,4.61,TR,1612481511
takoradi,4.8845,-1.7554,79.56,87,3,7.11,GH,1612481408
ferme-neuve,46.7001,-75.4493,24.8,74,0,1.61,CA,1612481511
taikang,46.8333,124.4167,-1.28,93,80,4.27,CN,1612481511
shache,38.4167,77.2406,26.85,84,0,3.36,CN,1612481512
kumluca,36.3703,30.2869,60.58,39,0,4.81,TR,1612481512
terrace,54.5163,-128.6035,32.0,100,90,2.3,CA,1612481406
saint-denis,48.9167,2.3333,46.99,93,40,2.3,FR,1612481471
hobyo,5.3505,48.5268,76.05,80,15,15.23,SO,1612481466
batemans bay,-35.7167,150.1833,73.99,87,78,13.0,AU,1612481512
tiarei,-17.5333,-149.3333,78.8,78,40,8.05,PF,1612481470
tinglev,54.931,9.2524,32.0,86,97,6.91,DK,1612481512
trinidad,-14.8333,-64.9,80.6,78,91,6.91,BO,1612481512
danshui,22.7984,114.4672,64.99,75,5,7.49,CN,1612481512
arambagh,22.8833,87.7833,55.08,47,3,2.26,IN,1612481500
nowy sacz,49.6218,20.6971,35.01,92,100,1.79,PL,1612481512
jeremie,18.65,-74.1167,75.4,80,31,7.81,HT,1612481512
reshetylivka,49.565,34.0782,35.67,94,100,22.86,UA,1612481513
suraabad,40.8192,49.4687,46.4,93,0,17.27,AZ,1612481513
rio pardo de minas,-15.6097,-42.5397,69.1,82,25,1.54,BR,1612481513
the valley,18.217,-63.0578,79.0,78,20,10.36,AI,1612481190
killybegs,54.6333,-8.45,39.99,95,99,5.99,IE,1612481236
liverpool,53.4106,-2.9779,44.6,93,90,4.61,GB,1612481414
auki,-8.7676,160.7034,84.47,70,66,8.5,SB,1612481513
bluefield,37.2698,-81.2223,39.2,26,90,9.22,US,1612481370
tuburan,6.6439,122.2736,75.2,100,75,10.04,PH,1612481513
saint anthony,45.0205,-93.218,19.4,62,75,13.8,US,1612481439
harrisonburg,38.4496,-78.8689,39.2,48,1,4.23,US,1612481513
charters towers,-20.1,146.2667,78.93,73,94,11.45,AU,1612481342
sorland,67.667,12.6934,37.24,78,45,20.0,NO,1612481514
fairview,40.8126,-73.999,42.8,45,1,3.44,US,1612481514
biak,-0.9131,122.8766,79.16,77,100,1.77,ID,1612481514
diamantino,-14.4086,-56.4461,77.99,79,89,2.21,BR,1612481514
hamilton,39.1834,-84.5333,37.4,70,90,9.22,US,1612481324
ndioum,16.5129,-14.6471,75.2,46,0,4.61,SN,1612481514
ilulissat,69.2167,-51.1,-0.4,35,0,14.97,GL,1612481187
boksburg,-26.212,28.2596,64.0,98,100,3.67,ZA,1612481514
berlevag,70.8578,29.0864,28.47,91,100,17.98,NO,1612481411
nacozari,25.3366,-108.2574,84.0,34,38,7.0,MX,1612481514
elko,41.0002,-115.5012,37.4,44,1,14.97,US,1612481514
srednekolymsk,67.45,153.6833,-7.17,82,91,16.91,RU,1612481514
doka,13.5167,35.7667,69.39,24,0,11.68,SD,1612481515
kangaatsiaq,68.3065,-53.4641,1.62,85,55,18.72,GL,1612481515
axim,4.8699,-2.2405,79.52,87,1,6.91,GH,1612481515
enterprise,36.0252,-115.2419,59.0,15,1,17.27,US,1612481515
pevek,69.7008,170.3133,-13.05,78,3,10.96,RU,1612481420
garni,40.1221,44.7312,35.6,87,90,2.3,AM,1612481515
matata,-37.8833,176.75,71.01,52,7,1.99,NZ,1612481515
kedougou,12.5579,-12.1743,78.69,17,19,2.8,SN,1612481515
boende,-0.2167,20.8667,73.18,95,100,1.74,CD,1612481515
khani,41.9563,42.9566,44.6,81,90,2.3,GE,1612481515
havre-saint-pierre,50.2334,-63.5986,32.0,93,90,6.91,CA,1612481515
araouane,18.9048,-3.5265,74.97,15,93,7.83,ML,1612481467
srirampur,22.9489,88.0189,59.0,82,0,2.42,IN,1612481516
comodoro rivadavia,-45.8667,-67.5,86.0,25,0,8.05,AR,1612481516
bereda,43.2686,-7.5406,46.99,100,100,1.01,ES,1612481290
ahipara,-35.1667,173.1667,71.2,60,83,4.07,NZ,1612481435
gorontalo,0.5412,123.0595,79.81,79,100,2.19,ID,1612481516
chegem,43.2833,43.1333,44.6,49,62,6.71,RU,1612481516
rantepao,-2.9701,119.8978,72.48,77,97,1.86,ID,1612481516
la romana,18.4273,-68.9728,77.0,83,20,4.61,DO,1612481516
pljevlja,43.3333,19.3333,42.8,81,0,5.75,ME,1612481516
shimoda,34.6667,138.95,44.6,65,75,4.61,JP,1612481441
byron bay,-28.65,153.6167,78.8,69,75,10.36,AU,1612481404
banjar,-8.19,114.9675,80.6,83,20,8.05,ID,1612481516
hindaun,26.7167,77.0167,52.03,91,78,6.8,IN,1612481516
ocos,14.5094,-92.1933,84.2,61,75,8.05,GT,1612481517
putina,-15.4667,-69.4333,49.03,73,83,9.91,PE,1612481517
necochea,-38.5473,-58.7368,63.0,88,0,1.01,AR,1612481446
dunmore town,25.5,-76.65,67.53,55,12,6.87,BS,1612481517
tocopilla,-22.092,-70.1979,68.67,62,70,3.49,CL,1612481416
santa catarina de tepehuanes,25.35,-105.7333,69.62,24,21,14.99,MX,1612481517
urdoma,61.7533,48.5442,15.91,97,98,6.26,RU,1612481517
tak,16.5833,98.8333,64.4,88,20,2.84,TH,1612481517
san jeronimo,-11.9472,-75.2829,53.47,70,85,4.36,PE,1612481517
cravo norte,6.3017,-70.2041,88.34,48,87,7.45,CO,1612481459
werda,-25.2667,23.2833,70.61,82,85,8.3,BW,1612481517
poum,-20.2333,164.0167,80.38,81,9,14.45,NC,1612481517
mocuba,-16.8392,36.9856,73.76,97,73,1.77,MZ,1612481518
celestun,20.8667,-90.4,72.01,63,0,9.31,MX,1612481518
ostrovnoy,68.0531,39.5131,11.12,93,100,21.39,RU,1612481518
mugur-aksy,50.35,90.5,6.53,87,95,6.29,RU,1612481518
znamenskoye,57.1281,73.8282,8.94,95,99,5.41,RU,1612481518
tungor,53.3808,142.9564,-11.15,88,100,19.33,RU,1612481518
gboko,7.3179,8.9951,79.63,16,12,4.76,NG,1612481518
linden,6.0,-58.3,77.0,88,40,9.22,GY,1612481518
nikolsk,53.7189,46.0712,35.55,98,100,11.12,RU,1612481518
njombe,-9.3333,34.7667,55.49,97,68,1.97,TZ,1612481518
muzhi,65.3667,64.6667,-11.33,90,99,5.61,RU,1612481519
skibbereen,51.55,-9.2667,42.8,87,75,12.66,IE,1612481519
bardiyah,31.7561,25.0865,57.9,85,0,14.12,LY,1612481519
maple creek,49.9168,-109.4848,23.0,80,98,4.61,CA,1612481519
mackay,-21.15,149.2,82.4,74,75,12.66,AU,1612481297
koumac,-20.5667,164.2833,81.91,76,35,10.31,NC,1612481519
barybino,55.2677,37.8933,19.99,86,90,13.42,RU,1612481519
klaeng,12.7797,101.6483,75.0,10,14,3.36,TH,1612481519
safford,32.834,-109.7076,69.8,18,1,23.02,US,1612481520
stokmarknes,68.5646,14.9108,27.0,89,89,14.56,NO,1612481520
talnakh,69.4865,88.3972,-22.43,86,100,1.45,RU,1612481419
grand-santi,4.25,-54.3833,73.62,88,62,4.56,GF,1612481520
zeya,53.75,127.2667,-22.63,83,98,1.83,RU,1612481239
kachiry,53.0675,76.1036,16.03,97,96,7.56,KZ,1612481520
misratah,32.3754,15.0925,62.56,55,100,11.27,LY,1612481520
champasak,14.75,106.0,63.46,80,8,1.66,LA,1612481520
talcahuano,-36.7167,-73.1167,59.0,94,90,10.36,CL,1612481415
kilrush,52.6397,-9.4833,42.8,87,90,9.22,IE,1612481520
abeche,13.8292,20.8324,67.3,24,2,16.89,TD,1612481520
bonthe,7.5264,-12.505,77.59,85,2,7.43,SL,1612481520
vilhena,-12.7406,-60.1458,75.2,88,20,5.75,BR,1612481458
fort nelson,58.8053,-122.7002,-13.0,64,75,5.75,CA,1612481405
tilichiki,60.4667,166.1,-4.22,93,68,16.02,RU,1612481521
acajutla,13.5928,-89.8275,77.0,63,13,3.33,SV,1612481521
ashington,50.9331,-0.3909,46.99,3,52,3.0,GB,1612481521
pangnirtung,66.1451,-65.7125,8.6,78,90,9.22,CA,1612481452
casablanca,33.5928,-7.6192,60.01,100,75,1.14,MA,1612481448
victoria point,-27.5833,153.3,84.0,71,54,5.99,AU,1612481521
maltahohe,-24.8333,16.9833,75.94,22,0,16.87,NA,1612481521
uni,57.7535,51.4923,30.97,99,100,5.1,RU,1612481521
salalah,17.0151,54.0924,71.6,73,40,4.61,OM,1612481418
sao jose da coroa grande,-8.8978,-35.1478,78.76,81,6,10.63,BR,1612481521
ruidoso,33.3317,-105.673,53.6,26,1,11.5,US,1612481522
astana,51.1801,71.446,26.6,86,90,11.18,KZ,1612481433
tevaitoa,-16.7833,-151.5,81.52,66,40,7.65,PF,1612481522
tshikapa,-6.4167,20.8,71.47,87,49,1.68,CD,1612481434
eyl,7.9803,49.8164,69.4,77,0,12.57,SO,1612481405
williamsburg,37.2707,-76.7075,42.8,49,1,6.22,US,1612481466
nelson bay,-32.7167,152.15,80.6,54,20,11.5,AU,1612481522
mehamn,71.0357,27.8492,27.36,90,100,15.28,NO,1612481522
mbanza-ngungu,-5.25,14.8667,70.16,94,100,1.97,CD,1612481522
fengxian,34.7039,116.5872,45.0,57,95,8.9,CN,1612481522
llata,-9.4167,-76.7833,54.07,71,100,2.33,PE,1612481522
san vicente,-26.6167,-54.1333,66.27,85,19,5.1,AR,1612481522
tabou,4.423,-7.3528,78.44,90,5,7.94,CI,1612481522
namatanai,-3.6667,152.4333,84.76,69,78,3.27,PG,1612481523
ust-kuyga,70.0167,135.6,-29.78,83,78,6.02,RU,1612481523
lazaro cardenas,17.9583,-102.2,78.69,70,0,7.07,MX,1612481523
marsh harbour,26.5412,-77.0636,65.34,54,32,5.17,BS,1612481523
clyde river,70.4692,-68.5914,-18.4,76,90,14.97,CA,1612481450
la paz,-16.5,-68.15,50.0,76,75,5.75,BO,1612481403
grindavik,63.8424,-22.4338,37.4,87,75,27.63,IS,1612481419
pingzhuang,42.0372,119.2889,20.71,89,8,5.55,CN,1612481523
aykhal,66.0,111.5,-36.56,80,62,4.32,RU,1612481523
savelugu,9.6244,-0.8253,82.54,16,0,5.64,GH,1612481523
ornskoldsvik,63.2909,18.7153,19.4,93,82,8.05,SE,1612481523
calbuco,-41.768,-73.1273,71.6,56,0,11.5,CL,1612481524
camacha,33.0833,-16.3333,53.6,82,75,18.41,PT,1612481422
abu zabad,12.35,29.25,66.04,26,14,19.13,SD,1612481403
harper,4.375,-7.7169,78.76,90,17,8.01,LR,1612481524
mandan,46.8267,-100.8896,14.0,72,40,23.02,US,1612481278
salinas,36.6777,-121.6555,62.6,42,1,13.8,US,1612481524
mbini,1.574,9.6134,78.8,100,40,5.5,GQ,1612481524
kalianget,-7.05,113.9333,80.8,81,98,19.82,ID,1612481524
leningradskiy,69.3833,178.4167,-26.43,85,100,11.5,RU,1612481524
northam,51.0333,-4.2167,43.0,96,5,4.0,GB,1612481433
cabedelo,-6.9811,-34.8339,78.8,83,0,6.91,BR,1612481524
taoudenni,22.6783,-3.9836,70.79,19,39,6.78,ML,1612481525
yarada,17.65,83.2667,62.6,88,17,2.3,IN,1612481525
prieska,-29.6641,22.7474,76.69,21,0,4.5,ZA,1612481525
launceston,-41.45,147.1667,71.6,68,90,6.91,AU,1612481525
liuzhou,24.3126,109.3892,62.04,71,0,3.38,CN,1612481525
dingzhou,38.5131,114.9956,24.8,58,100,5.12,CN,1612481239
kargil,34.5667,76.1,-6.41,73,98,1.9,IN,1612481423
lorengau,-2.0226,147.2712,81.18,79,99,5.12,PG,1612481399
katobu,-4.9408,122.5276,79.72,87,100,3.85,ID,1612481459
aanekoski,62.6946,25.818,3.99,85,0,6.91,FI,1612481525
quatre cocos,-20.2078,57.7625,79.0,73,40,11.5,MU,1612481526
henties bay,-22.116,14.2845,64.99,84,48,1.01,NA,1612481421
sayyan,15.1718,44.3244,41.81,61,0,3.02,YE,1612481460
westport,41.1415,-73.3579,37.4,56,1,3.44,US,1612481448
ahuimanu,21.4447,-157.8378,71.6,60,75,13.8,US,1612481488
cerritos,33.8583,-118.0648,69.01,63,20,6.91,US,1612481526
senador jose porfirio,-2.5908,-51.9542,81.19,69,82,4.79,BR,1612481526
sinnamary,5.3833,-52.95,77.29,80,94,13.6,GF,1612481460
sainte-suzanne,-20.9061,55.6089,75.2,88,75,14.97,RE,1612481526
ucluelet,48.9329,-125.5528,46.0,100,90,3.44,CA,1612481254
portoferraio,42.8115,10.3146,59.0,89,98,3.0,IT,1612481465
tayturka,52.8692,103.4608,12.06,94,100,8.34,RU,1612481526
serdobsk,52.4586,44.2169,35.8,99,100,11.7,RU,1612481526
frontera,26.9333,-101.45,93.2,12,20,11.5,MX,1612481527
santiago,-33.4569,-70.6483,82.4,42,0,5.75,CL,1612481504
oriximina,-1.7656,-55.8661,80.65,75,76,3.83,BR,1612481527
bilibino,68.0546,166.4372,-16.19,78,49,9.4,RU,1612481527
husavik,66.0449,-17.3389,26.6,63,0,13.8,IS,1612481408
tommot,58.9564,126.2925,-31.25,77,26,0.31,RU,1612481527
porto novo,6.4965,2.6036,84.2,84,40,12.66,BJ,1612481527
bontang,0.1333,117.5,78.1,87,100,3.27,ID,1612481527
u thong,14.3751,99.8923,73.0,56,41,4.29,TH,1612481527
thayetmyo,19.3167,95.1833,65.41,48,0,3.69,MM,1612481527
sola,-13.8833,167.55,87.8,70,75,5.75,VU,1612481527
nago,26.5881,127.9761,60.8,59,1,5.75,JP,1612481527
coos bay,43.3665,-124.2179,51.8,71,1,16.11,US,1612481272
selikhino,50.3672,137.4996,-12.33,86,87,12.06,RU,1612481528
baykit,61.67,96.37,-2.6,88,99,2.73,RU,1612481528
gat,31.61,34.7642,55.99,100,100,8.79,IL,1612481459
japura,-0.3167,102.35,72.23,88,93,1.92,ID,1612481528
russkaya polyana,49.417,31.9201,27.54,95,100,21.92,UA,1612481528
jvari,42.7169,42.052,44.6,81,90,2.3,GE,1612481528
champerico,14.3,-91.9167,82.4,74,75,8.21,GT,1612481528
beringovskiy,63.05,179.3167,-0.83,92,100,8.97,RU,1612481528
dawei,14.0833,98.2,70.32,57,5,4.0,MM,1612481528
popondetta,-8.7537,148.2534,83.37,82,14,2.62,PG,1612481528
flagstaff,35.1981,-111.6513,44.6,33,1,5.75,US,1612481462
bikaner,28.0167,73.3,52.79,64,0,4.9,IN,1612481409
calabozo,8.9242,-67.4293,86.76,49,89,5.64,VE,1612481529
leh,34.1667,77.5833,6.49,61,100,2.95,IN,1612481529
larap,14.299,122.6504,75.65,89,99,14.92,PH,1612481529
navoi,40.0844,65.3792,39.2,81,99,11.5,UZ,1612481529
balkanabat,39.5108,54.3671,52.21,43,98,4.56,TM,1612481529
boma,7.0805,-2.1697,75.97,80,21,3.33,GH,1612481529
tefe,-3.3542,-64.7114,84.2,79,20,3.44,BR,1612481529
biloxi,30.396,-88.8853,64.4,82,40,5.75,US,1612481230
atakpame,7.5333,1.1333,79.14,70,20,4.09,TG,1612481529
guiglo,6.5456,-7.4966,76.03,80,45,3.0,CI,1612481529
biysk,52.5364,85.2072,14.94,95,100,2.01,RU,1612481529
kavieng,-2.5744,150.7967,83.8,75,95,6.98,PG,1612481422
ajdabiya,30.7554,20.2263,56.52,83,0,3.87,LY,1612481530
malanje,-9.5402,16.341,63.16,97,82,2.17,AO,1612481530
chimore,-16.9833,-65.1333,71.92,95,100,0.76,BO,1612481530
tieli,46.95,128.05,1.17,90,100,4.38,CN,1612481530
kazanskaya,45.4106,40.4361,48.45,75,100,13.78,RU,1612481530
marawi,7.9986,124.2928,73.99,87,78,4.0,PH,1612481408
bagdarin,54.4333,113.6,-8.64,84,100,2.82,RU,1612481530
vestmannaeyjar,63.4427,-20.2734,39.85,72,100,31.18,IS,1612481419
ocho rios,18.4025,-77.1048,73.99,96,77,10.74,JM,1612481530
hailey,43.5196,-114.3153,30.2,64,1,1.92,US,1612481530
moa,20.6569,-74.9403,71.4,73,10,10.83,CU,1612481530
severnyy,50.677,36.5532,33.8,100,90,11.18,RU,1612481530
gallup,35.5281,-108.7426,44.6,23,1,16.11,US,1612481531
kuchera,26.9839,73.9719,53.53,65,0,5.23,IN,1612481531
zvishavane,-20.3267,30.0665,70.3,88,24,2.1,ZW,1612481531
lac-megantic,45.5834,-70.8823,25.0,82,100,7.43,CA,1612481531
astoria,46.1879,-123.8313,48.0,93,90,9.22,US,1612481531
tianpeng,30.9866,103.9393,46.99,1,0,2.39,CN,1612481531
delta del tigre,-34.7633,-56.3853,69.8,73,40,17.27,UY,1612481531
zholymbet,51.7433,71.7122,24.8,98,96,8.05,KZ,1612481531
maralal,1.0968,36.698,56.7,80,0,5.12,KE,1612481531
roswell,34.0232,-84.3616,51.8,40,40,5.75,US,1612481262
bandarbeyla,9.4942,50.8122,71.83,70,17,12.21,SO,1612481424
visnes,59.3556,5.2242,24.01,58,24,12.66,NO,1612481531
nacogdoches,31.6002,-94.6335,73.4,53,40,10.36,US,1612481532
skala,50.2305,19.8536,33.01,93,75,4.61,PL,1612481532
abbotsford,49.058,-122.2526,41.0,93,90,10.36,CA,1612481532
esmeraldas,-19.7625,-44.3139,82.4,57,75,8.05,BR,1612481501
jertih,5.7336,102.4897,75.2,88,20,2.3,MY,1612481532
banfora,10.6333,-4.7667,77.22,18,3,2.62,BF,1612481532
leshukonskoye,64.8989,45.7622,3.85,94,100,10.65,RU,1612481532
margate,51.3813,1.3862,48.0,89,79,1.01,GB,1612481521
ningxiang,37.34,111.2052,28.02,73,58,5.17,CN,1612481532
lengshuijiang,27.6881,111.4294,48.88,88,100,3.65,CN,1612481532
kita,13.0349,-9.4895,73.22,18,42,1.97,ML,1612481533
den helder,52.9599,4.7593,37.99,100,75,11.5,NL,1612481533
sembe,1.6481,14.5806,73.83,77,80,2.93,CG,1612481533
borogontsy,62.6683,131.1683,-41.04,80,82,3.04,RU,1612481533
sovetskiy,61.3614,63.5842,7.29,96,97,4.88,RU,1612481533
khandyga,62.6667,135.6,-44.46,78,100,1.86,RU,1612481533
rutland,43.6167,-73.0162,28.4,74,1,3.44,US,1612481533
aksarka,66.5606,67.7975,-23.21,87,63,4.61,RU,1612481445
gusoeni,44.7333,24.1167,45.0,81,0,10.36,RO,1612481533
yinchuan,38.4681,106.2731,31.68,73,20,12.01,CN,1612481533
